id,Name,Address,Lat,Long,Number of Ratings,Restaurant Rating,Type of Restaurant,Number of Bookmarks,Price Range,Phone Number,Website,Instagram,Facebook,Timetable,url
1,Freedom Cakes Diner,"Calle Cádiz 7,Madrid,Spain,28004",40.415876,-3.702805,470,4.5,['International'],766,Moderado,+34-910741347,http://www.freedomcakes.es/,http://www.instagram.com/freedomcakes,http://facebook.com/Freedomcakesvegan,"{'Monday': '08:00 - 00:00', 'Tuesday': '08:00 - 00:00', 'Wednesday': '08:00 - 00:00', 'Thursday': '08:00 - 00:00', 'Friday': '08:00 - 00:30', 'Saturday': '08:00 - 00:30', 'Sunday': '08:00 - 00:00'}",https://www.happycow.net/reviews/freedom-cakes-diner-madrid-101451
2,Mad Mad Vegan - Chueca,"Calle Pelayo 19,Madrid,Spain,28004",40.422698,-3.698609,410,5.0,"['American', 'Mexican']",612,Moderado,+34-914442077,https://madmadvegan.com/,http://www.instagram.com/madmadvegan,http://facebook.com/MADMADVEGAN,"{'Monday': '13:00 - 00:00', 'Tuesday': '13:00 - 00:00', 'Wednesday': '13:00 - 00:00', 'Thursday': '13:00 - 00:00', 'Friday': '13:00 - 00:00', 'Saturday': '13:00 - 00:00', 'Sunday': '13:00 - 00:00'}",https://www.happycow.net/reviews/mad-mad-madrid-154608
3,Frutas Prohibidas,"Calle del Conde Duque, 26,Madrid,Spain,28015",40.427467,-3.710349,241,5.0,"['International', 'Fusion']",555,Moderado,+34-911525533,http://www.frutasprohibidas.com/,http://www.instagram.com/frutasprohibidasbar,http://facebook.com/frutasprohibidasbar,"{'Monday': 'Closed', 'Tuesday': 'Closed', 'Wednesday': '10:00 - 18:00', 'Thursday': '10:00 - 18:00', 'Friday': '10:00 - 18:00', 'Saturday': '10:00 - 18:00', 'Sunday': '10:00 - 18:00'}",https://www.happycow.net/reviews/frutas-prohibidas-madrid-187623
4,Mad Mad Vegan - Lavapiés,"Lavapiés 16,Madrid,Spain,28012",40.411113,-3.703039,216,4.5,"['American', 'Mexican']",465,Moderado,+34-910665299,https://madmadvegan.com/,http://www.instagram.com/madmadvegan,http://facebook.com/MADMADVEGAN,"{'Monday': '13:00 - 00:00', 'Tuesday': '13:00 - 00:00', 'Wednesday': '13:00 - 00:00', 'Thursday': '13:00 - 00:00', 'Friday': '13:00 - 00:00', 'Saturday': '13:00 - 00:00', 'Sunday': '13:00 - 00:00'}",https://www.happycow.net/reviews/mad-mad-vegan-madrid-232175
5,Flower Burger," Calle Luchana 13, Chamberí,Madrid,Spain,28010",40.430001,-3.701037,14,4.5,"['American', 'Western']",47,Barato,+34-910328968,https://www.flowerburger.it/,http://www.instagram.com/flowerburger_es,http://facebook.com/flowerburger.it,"{'Monday': '13:00 - 16:30, 19:30 - 23:30', 'Tuesday': '13:00 - 16:30, 19:30 - 23:30', 'Wednesday': '13:00 - 16:30, 19:30 - 23:30', 'Thursday': '13:00 - 16:30, 19:30 - 23:30', 'Friday': '13:00 - 00:00', 'Saturday': '13:00 - 00:00', 'Sunday': '13:00 - 23:30'}",https://www.happycow.net/reviews/flower-burger-madrid-409399
6,Viva Chapata,"Calle del Ave Maria 43,Madrid,Spain,28012",40.409423,-3.700885,176,4.5,"['Western', 'Spanish']",406,Moderado,+34-915301093,https://vivachapata.es/,http://www.instagram.com/vivachapatamadrid,http://facebook.com/vivachapataMadrid,"{'Monday': 'Closed', 'Tuesday': '10:00 - 00:00', 'Wednesday': '10:00 - 00:00', 'Thursday': '10:00 - 00:00', 'Friday': '10:00 - 00:30', 'Saturday': '11:30 - 00:30', 'Sunday': '11:30 - 00:30'}",https://www.happycow.net/reviews/viva-chapata-madrid-34396
7,La Oveja Negra,"C/ Buenavista, 42, Lavapiés,Madrid,Spain,28012",40.409241,-3.699736,296,4.5,['Western'],648,Moderado,+34-665857363,https://ovejavegana.com/,http://www.instagram.com/ovejanegravegana,http://facebook.com/ovejaveganamadrid,"{'Monday': '13:00 - 17:00', 'Tuesday': '13:00 - 00:00', 'Wednesday': '13:00 - 00:00', 'Thursday': '13:00 - 00:00', 'Friday': '13:00 - 00:00', 'Saturday': '13:00 - 00:00', 'Sunday': '13:00 - 17:00'}",https://www.happycow.net/reviews/la-oveja-negra-madrid-32567
8,VEGA - Luna,"Luna 9 (at Malasana District),Madrid,Spain,28004",40.422335,-3.706148,406,4.5,"['International', 'Mediterranean', 'Fusion', 'Spanish']",670,Moderado,+34-910704969,https://luna.govega.es/,http://www.instagram.com/vegarestaurantes,http://facebook.com/vegarestaurantes,"{'Monday': 'Closed', 'Tuesday': '13:00 - 23:00', 'Wednesday': '13:00 - 23:00', 'Thursday': '13:00 - 23:00', 'Friday': '13:00 - 23:00', 'Saturday': '13:00 - 23:30', 'Sunday': '13:00 - 17:00'}",https://www.happycow.net/reviews/vega-madrid-54785
9,Celicioso Callao,"Plaza del Callao, 2, 9º Planta,Madrid,Spain,28013",40.419516,-3.704929,5,4.0,[],14,No price range,+34-915312594,https://cartacelicioso.wixsite.com/celiciosohortaleza,No instagram,http://facebook.com/Celicioso,"{'Monday': '10:00 - 22:00', 'Tuesday': '10:00 - 22:00', 'Wednesday': '10:00 - 22:00', 'Thursday': '10:00 - 22:00', 'Friday': '10:00 - 22:00', 'Saturday': '10:00 - 22:00', 'Sunday': '10:00 - 22:00'}",https://www.happycow.net/reviews/celicioso-callao-madrid-204536
10,Shi-Shang,"3 Calle de Concepcion Arenal,Madrid,Spain,28004",40.420710,-3.704862,127,4.0,['Chinese'],168,Moderado,+34-915231220,http://www.shishang.es/,No instagram,http://facebook.com/Shishang-660068537454676,"{'Monday': 'Closed', 'Tuesday': 'Closed', 'Wednesday': '12:30 - 16:30, 19:30 - 00:00', 'Thursday': '12:30 - 16:30, 19:30 - 00:00', 'Friday': '12:30 - 16:30, 19:30 - 00:00', 'Saturday': '12:30 - 16:30, 19:30 - 00:00', 'Sunday': '12:30 - 16:30, 19:30 - 00:00'}",https://www.happycow.net/reviews/shi-shang-madrid-12240
11,Kiraku,"Calle de Miguel Moya 6,Madrid,Spain,28004",40.420860,-3.705487,0,0,"['Japanese', 'Asian']",0,Moderado,+34-915227574,https://kirakuberkeley.com/,http://www.instagram.com/kirakumadrid/?hl=es,No facebook,"{'Monday': 'Closed', 'Tuesday': '17:30 - 22:00', 'Wednesday': '17:30 - 22:00', 'Thursday': '17:30 - 22:00', 'Friday': '17:30 - 23:00', 'Saturday': '17:30 - 23:00', 'Sunday': 'Closed'}",https://www.happycow.net/reviews/kiraku-madrid-405914
12,GEISHA ,"C. de las Navas de Tolosa, 6,Madrid,Spain,28013",40.419258,-3.706581,1,4.0,[],3,No price range,+34-614177950,No website,http://www.instagram.com/geishacoffeemadrid,No facebook,"{'Monday': '09:00 - 18:00', 'Tuesday': '09:00 - 18:00', 'Wednesday': '09:00 - 18:00', 'Thursday': '09:00 - 19:00', 'Friday': '09:00 - 20:00', 'Saturday': '09:00 - 20:00', 'Sunday': '09:00 - 20:00'}",https://www.happycow.net/reviews/geisha-madrid-408421
13,Xiongzai II,"Calle de la Salud, 8,Madrid,Spain,28013",40.419475,-3.702994,4,3.0,"['Chinese', 'Asian']",35,Moderado,+34-910749665,http://www.restaurantexiongzai.com/,No instagram,No facebook,"{'Monday': 'Closed', 'Tuesday': '12:30 - 17:00, 18:30 - 23:00', 'Wednesday': '12:30 - 17:00, 18:30 - 23:00', 'Thursday': '12:30 - 17:00, 18:30 - 23:00', 'Friday': '12:30 - 17:00, 18:30 - 23:00', 'Saturday': '12:30 - 17:00, 18:30 - 23:00', 'Sunday': '12:30 - 17:00, 18:30 - 23:00'}",https://www.happycow.net/reviews/xiongzai-ii-madrid-258675
14,Naked and Sated - Maestro Victoria,"C. del Maestro Victoria, 5,Madrid,Spain,28013",40.418445,-3.705356,9,3.0,"['International', 'Mediterranean', 'Fusion', 'Spanish']",35,Moderado,+34-914442277,https://nakedandsated.com/,No instagram,http://facebook.com/nakedandsated,"{'Monday': '13:00 - 00:00', 'Tuesday': '13:00 - 00:00', 'Wednesday': '13:00 - 00:00', 'Thursday': '13:00 - 00:00', 'Friday': '13:00 - 00:00', 'Saturday': '11:00 - 00:00', 'Sunday': '11:00 - 23:30'}",https://www.happycow.net/reviews/naked-and-sated-madrid-251540
15,Tropicalista GastroBar,"C. de la Ballesta, 2,Madrid,Spain,28004",40.421114,-3.703581,1,4.0,['Brazilian'],0,Moderado,+34-915233185,https://tropicalista.es/?utm_source=google-my-business,http://www.instagram.com/bartropicalista,http://facebook.com/bartropicalista,"{'Monday': '19:30 - 00:30', 'Tuesday': '19:30 - 00:30', 'Wednesday': '19:30 - 00:30', 'Thursday': '19:30 - 00:30', 'Friday': '13:30 - 17:30, 19:30 - 01:00', 'Saturday': '13:30 - 01:00', 'Sunday': '14:00 - 00:00'}",https://www.happycow.net/reviews/tropicalista-gastrobar-madrid-409065
16,AbonaVida,"Calle Navas de Tolosa 3,Madrid,Spain",40.419150,-3.706617,20,3.0,['Mediterranean'],44,Moderado,+34-915229860,http://www.abonavida.com/,No instagram,http://facebook.com/pages/ABONAVIDA/184581252308,"{'Monday': '09:00 - 02:00', 'Tuesday': '09:00 - 02:00', 'Wednesday': '09:00 - 02:00', 'Thursday': '09:00 - 02:00', 'Friday': '09:00 - 02:00', 'Saturday': '13:00 - 02:00', 'Sunday': '13:00 - 02:00'}",https://www.happycow.net/reviews/abonavida-madrid-58755
17,Lopez and Lopez - Malasana,"C de Loreto y Chicote, 3,Madrid,Spain,28004",40.421348,-3.703752,4,3.5,"['International', 'Italian']",11,Moderado,+34-910442022,https://www.lopezylopezpizzeria.es/,No instagram,http://facebook.com/LopezLopezPizzeria,"{'Monday': '20:00 - 00:30', 'Tuesday': '20:00 - 00:30', 'Wednesday': '13:30 - 17:00, 20:00 - 00:30', 'Thursday': '13:30 - 17:00, 20:00 - 00:30', 'Friday': '13:30 - 17:00, 20:00 - 01:30', 'Saturday': '13:30 - 17:00, 20:00 - 01:30', 'Sunday': '13:30 - 17:00, 20:00 - 00:30'}",https://www.happycow.net/reviews/lopez-and-lopez-madrid-265273
18,Artemisa Sol,"Calle Tres Cruces 4, Gran Via,Madrid,Spain,28013",40.419263,-3.702862,45,4.0,['Spanish'],72,Moderado,+34-915218721,http://restaurantevegetarianosolgranvia.com/,No instagram,http://facebook.com/ArtemisaGranVia,"{'Monday': '13:30 - 16:00, 20:00 - 23:00', 'Tuesday': '13:30 - 16:00', 'Wednesday': '13:30 - 16:00', 'Thursday': '13:30 - 16:00', 'Friday': '13:30 - 16:00, 20:00 - 23:00', 'Saturday': '13:30 - 16:00, 20:00 - 23:00', 'Sunday': '13:30 - 16:00, 20:00 - 23:00'}",https://www.happycow.net/reviews/artemisa-sol-madrid-34403
19,Lamucca del Carmen,"Plaza del Carmen, 5,Madrid,Spain,28013",40.418998,-3.702900,1,4.0,"['American', 'Mediterranean']",2,Moderado,+34-915210000,https://lamuccacompany.es/lamucca-del-carmen,http://www.instagram.com/lamucca,http://facebook.com/RestaurantesLamucca,"{'Monday': '10:00 - 01:30', 'Tuesday': '10:00 - 01:30', 'Wednesday': '10:00 - 01:30', 'Thursday': '10:00 - 02:00', 'Friday': '10:00 - 02:30', 'Saturday': '10:00 - 02:30', 'Sunday': '10:00 - 01:30'}",https://www.happycow.net/reviews/lamucca-del-carmen-madrid-376382
20,Pans & Company - Gran Vía,"Calle Gran Vía, 30,Madrid,Spain,28013",40.420227,-3.702465,7,3.5,"['Mediterranean', 'Spanish']",20,Barato,+34-915326510,http://www.pansandcompany.com/,http://www.instagram.com/pansandco,http://facebook.com/pansandcompany,"{'Monday': '10:00 - 23:00', 'Tuesday': '10:00 - 23:00', 'Wednesday': '10:00 - 23:00', 'Thursday': '10:00 - 23:00', 'Friday': '10:00 - 00:00', 'Saturday': '10:00 - 00:00', 'Sunday': '10:00 - 23:00'}",https://www.happycow.net/reviews/pans-and-company-madrid-190217
21,El Ideal Bar,"Calle Estrella, 3,Madrid,Spain,28004",40.421919,-3.706030,0,0,['Spanish'],6,Barato,+34-651829373,No website,http://www.instagram.com/el_ideal_bar,http://facebook.com/elidealbar/,"{'Monday': 'Closed', 'Tuesday': '19:00 - 02:00', 'Wednesday': '19:00 - 02:00', 'Thursday': '19:00 - 02:00', 'Friday': '19:00 - 02:30', 'Saturday': '19:00 - 02:30', 'Sunday': 'Closed'}",https://www.happycow.net/reviews/el-ideal-bar-madrid-109777
22,Jardín Secreto,"37 Calle de la Montera,Madrid,Spain,28013",40.419075,-3.702206,1,1.0,"['European', 'Spanish']",18,Caro,+34-915311251,https://www.restaurantesalvadorbachiller.es/,No instagram,No facebook,"{'Monday': '11:00 - 00:00', 'Tuesday': '11:00 - 00:00', 'Wednesday': '11:00 - 00:00', 'Thursday': '11:00 - 01:00', 'Friday': '11:00 - 01:00', 'Saturday': '11:00 - 01:00', 'Sunday': '11:00 - 00:00'}",https://www.happycow.net/reviews/jardin-secreto-madrid-287468
23,B13 Bar,"Calle de la Ballesta 13,Madrid,Spain,28004",40.421924,-3.703419,302,4.5,"['Western', 'Spanish']",528,Barato,+34-911704435,No website,No instagram,No facebook,"{'Monday': 'Closed', 'Tuesday': 'Closed', 'Wednesday': '13:30 - 16:30, 20:00 - 23:00', 'Thursday': '13:30 - 16:30, 20:00 - 23:00', 'Friday': '13:30 - 16:30, 20:00 - 00:00', 'Saturday': '13:30 - 16:30, 20:00 - 00:00', 'Sunday': '13:30 - 16:30, 20:00 - 23:00'}",https://www.happycow.net/reviews/b13-bar-madrid-34434
24,Brunch Club ,"C. del Barco, 15,Madrid,Spain,28004",40.421600,-3.702822,1,4.0,['Western'],0,No price range,+34-910461934,http://www.brunchclubcafe.com/,http://www.instagram.com/brunchclubcafe,http://facebook.com/brunchclubcafe,"{'Monday': '09:30 - 16:30', 'Tuesday': '09:30 - 16:30', 'Wednesday': '09:30 - 16:30', 'Thursday': '09:30 - 16:30', 'Friday': '09:30 - 16:30', 'Saturday': '09:30 - 16:30', 'Sunday': '09:30 - 16:30'}",https://www.happycow.net/reviews/brunch-club-madrid-409688
25,Chila - 湘遇,"Calle de Silva, 4,Madrid,Spain,28013",40.420631,-3.707712,1,4.0,"['Chinese', 'Asian']",0,Moderado,+34-690252451,https://www.chilachila.com/en-gb,http://www.instagram.com/chila_xiangyu,No facebook,"{'Monday': '12:00 - 23:00', 'Tuesday': '12:00 - 23:00', 'Wednesday': '12:00 - 23:00', 'Thursday': '12:00 - 23:00', 'Friday': '12:00 - 23:00', 'Saturday': '12:00 - 23:00', 'Sunday': '12:00 - 23:00'}",https://www.happycow.net/reviews/chila-madrid-422020
26,Burnout - Valverde,"6 Calle de Valverde,Madrid,Spain,28004",40.420808,-3.702088,3,4.0,"['American', 'Western']",6,Moderado,+34-915991085,http://www.burnoutburgers.com/,No instagram,No facebook,"{'Monday': '13:00 - 16:30, 20:00 - 23:30', 'Tuesday': '13:00 - 16:30, 20:00 - 23:30', 'Wednesday': '13:00 - 16:30, 20:00 - 23:30', 'Thursday': '13:00 - 16:30', 'Friday': '13:00 - 17:00', 'Saturday': '13:00 - 17:00', 'Sunday': '13:00 - 17:00, 20:00 - 23:30'}",https://www.happycow.net/reviews/burnout-madrid-259614
27,Lemongrass,"36, Calle Montera,Madrid,Spain,28013",40.419182,-3.701816,13,3.5,"['Thai', 'Asian']",34,Barato,+34-915224738,http://www.lemongrass.es/,No instagram,http://facebook.com/lemongrassSpain,"{'Monday': '12:00 - 00:00', 'Tuesday': '12:00 - 00:00', 'Wednesday': '12:00 - 00:00', 'Thursday': '12:00 - 00:00', 'Friday': '12:00 - 00:00', 'Saturday': '12:00 - 00:00', 'Sunday': '12:00 - 00:00'}",https://www.happycow.net/reviews/lemongrass-madrid-60248
28,La Huerta Funky Castizo,"C de las Conchas, 8,Madrid,Spain,28013",40.418956,-3.708069,60,5.0,"['Italian', 'European', 'Fusion']",177,Moderado,+34-917003596,https://lahuertafunkycastizo.com/,http://www.instagram.com/lahuertafunkycastizo,http://facebook.com/lahuertafunkycastizo,"{'Monday': '17:00 - 02:00', 'Tuesday': '17:00 - 02:00', 'Wednesday': '12:00 - 02:00', 'Thursday': '12:00 - 02:00', 'Friday': '12:00 - 02:30', 'Saturday': '12:00 - 02:30', 'Sunday': '12:00 - 02:00'}",https://www.happycow.net/reviews/la-huerta-funky-castizo-madrid-356550
29,Amargo Place To Be,"2 Calle del Pez,Madrid,Spain,28004",40.422686,-3.703720,2,3.0,"['International', 'Western', 'Spanish']",20,Moderado,+34-910847990,https://amargoplacetobe.com/,No instagram,http://facebook.com/amargoplacetobe,"{'Monday': '10:00 - 23:00', 'Tuesday': '10:00 - 23:00', 'Wednesday': '10:00 - 23:00', 'Thursday': '10:00 - 23:00', 'Friday': '10:00 - 23:00', 'Saturday': '10:00 - 23:00', 'Sunday': '10:00 - 23:00'}",https://www.happycow.net/reviews/amargo-place-to-be-madrid-239392
30,Celicioso - Hortaleza,"Calle Hortaleza, 3,Madrid,Spain",40.420354,-3.701102,40,3.5,"['Mediterranean', 'European', 'Spanish']",32,No price range,+34-915318887,http://www.celicioso.es/,No instagram,http://facebook.com/Celicioso,"{'Monday': '09:00 - 21:30', 'Tuesday': '09:00 - 21:30', 'Wednesday': '09:00 - 21:30', 'Thursday': '09:00 - 21:30', 'Friday': '09:00 - 21:30', 'Saturday': '09:00 - 21:30', 'Sunday': '09:00 - 21:30'}",https://www.happycow.net/reviews/celicioso-madrid-68327
31,Casa Jaguar,"Calle de los Canos del Peral, 9,Madrid,Spain,28013",40.419105,-3.708648,3,4.0,"['Mexican', 'Latin']",12,Moderado,+34-910245712,No website,No instagram,No facebook,"{'Monday': 'Closed', 'Tuesday': '18:00 - 00:00', 'Wednesday': '13:00 - 17:00', 'Thursday': 'Closed', 'Friday': 'Closed', 'Saturday': 'Closed', 'Sunday': 'Closed'}",https://www.happycow.net/reviews/casa-jaguar-madrid-91345
32,Wok to Walk - Hortaleza,"C/ Hortaleza, 7,Madrid,Spain,28004",40.420616,-3.700888,9,3.0,"['Chinese', 'Asian']",23,Barato,No phone number,http://woktowalk.com/spain/restaurants/europe/spain/madrid/7-calle-hortaleza-st,No instagram,http://facebook.com/woktowalkinternational,"{'Monday': '12:00 - 00:00', 'Tuesday': '12:00 - 00:00', 'Wednesday': '12:00 - 00:00', 'Thursday': '12:00 - 00:00', 'Friday': '12:00 - 02:00', 'Saturday': '12:00 - 02:00', 'Sunday': '12:00 - 00:00'}",https://www.happycow.net/reviews/wok-to-walk-madrid-57755
33,Dokdo Korea,"Calle de los Caños del Peral, 5,Madrid,Spain,28013",40.418861,-3.708807,6,3.0,"['Asian', 'Korean']",23,Moderado,+34-910446237,No website,No instagram,http://facebook.com/dokdokoreamad/,"{'Monday': '09:00 - 21:00', 'Tuesday': '09:00 - 21:00', 'Wednesday': '09:00 - 21:00', 'Thursday': '09:00 - 21:00', 'Friday': '09:00 - 21:00', 'Saturday': '09:00 - 21:00', 'Sunday': '09:00 - 21:00'}",https://www.happycow.net/reviews/dokdo-korea-madrid-211039
34,Wok to Walk - Calle Mayor,"Calle Mayor, 4,Madrid,Spain,28013",40.416717,-3.705068,7,3.5,"['Chinese', 'Asian']",24,Barato,No phone number,https://www.woktowalk.com/locations/spain,No instagram,http://facebook.com/woktowalkinternational,"{'Monday': '12:00 - 01:00', 'Tuesday': '12:00 - 01:00', 'Wednesday': '12:00 - 01:00', 'Thursday': '12:00 - 01:00', 'Friday': '12:00 - 02:00', 'Saturday': '12:00 - 02:00', 'Sunday': '12:00 - 01:00'}",https://www.happycow.net/reviews/wok-to-walk-madrid-138240
35,The Veggie Point,"Various locations throughout Spain (at Based in Madrid.),Madrid,Spain,28021",40.416775,-3.703790,2,5.0,[],6,No price range,+34-636803919,https://theveggiepoint.com/,http://www.instagram.com/theveggiepoint_streetfood,No facebook,{'Horario': 'No hay horario'},https://www.happycow.net/reviews/the-veggie-point-madrid-383874
36,The Treehouse by Superchulo,"C Gran Vía, 55,Madrid,Spain,28013",40.421550,-3.708629,1,5.0,"['Western', 'Mediterranean', 'Spanish']",5,Moderado,+34-911087670,https://superchulorestaurante.com/,No instagram,http://facebook.com/superchulomadrid,"{'Monday': '09:00 - 20:00', 'Tuesday': '09:00 - 20:00', 'Wednesday': '09:00 - 20:00', 'Thursday': '09:00 - 20:00', 'Friday': '09:00 - 20:00', 'Saturday': '09:00 - 20:00', 'Sunday': '09:00 - 20:00'}",https://www.happycow.net/reviews/the-treehouse-by-superchulo-madrid-402145
37,Grosso Napoletano - Malasaña,"11 Calle del Pez,Madrid,Spain,28004",40.423372,-3.705100,3,3.5,['Italian'],19,Moderado,+34-910053691,https://www.grossonapoletano.com/,http://www.instagram.com/grosso_napoletano,http://facebook.com/grossonapoletano,"{'Monday': '13:00 - 23:00', 'Tuesday': '13:00 - 23:00', 'Wednesday': '13:00 - 23:00', 'Thursday': '13:00 - 23:00', 'Friday': '13:00 - 00:00', 'Saturday': '13:00 - 00:00', 'Sunday': '13:00 - 23:30'}",https://www.happycow.net/reviews/grosso-napoletano-madrid-306836
38,Zenith Brunch & Cocktails,"Calle de Valverde, 28,Madrid,Spain,28004",40.422366,-3.701621,22,3.5,"['European', 'Fusion']",49,Moderado,+34-912124299,http://www.zenithcaffe.es/,No instagram,http://facebook.com/zenithcaffemadrid,"{'Monday': '09:00 - 18:00', 'Tuesday': '09:00 - 18:00', 'Wednesday': '09:00 - 18:00', 'Thursday': '09:00 - 18:00', 'Friday': '09:00 - 18:00', 'Saturday': '09:00 - 18:00', 'Sunday': '09:00 - 18:00'}",https://www.happycow.net/reviews/zenith-brunch-cocktails-madrid-266834
39,Lamucca de Pez,"Pl. de Carlos Cambronero 4,Madrid,Spain,28004",40.423332,-3.703871,2,3.0,"['American', 'International', 'Mediterranean', 'Spanish']",2,Moderado,+34-915210000,https://www.lamuccacompany.com/,No instagram,http://facebook.com/GrupoLamuccaCompany,"{'Monday': '13:00 - 01:30', 'Tuesday': '13:00 - 01:30', 'Wednesday': '13:00 - 01:30', 'Thursday': '13:00 - 02:00', 'Friday': '13:00 - 02:30', 'Saturday': '10:00 - 02:30', 'Sunday': '10:00 - 01:30'}",https://www.happycow.net/reviews/lamucca-de-pez-madrid-298291
40,Viena Capellanes,"C de Bordadores, 9,Madrid,Spain,28013",40.416965,-3.707394,0,0,"['International', 'Spanish']",21,Barato,+34-915595397,http://www.vienacapellanes.com/,http://www.instagram.com/vienacapellanes,http://facebook.com/VienaCapellanes,"{'Monday': '08:00 - 21:00', 'Tuesday': '08:00 - 21:00', 'Wednesday': '08:00 - 21:00', 'Thursday': '08:00 - 21:00', 'Friday': '08:00 - 21:30', 'Saturday': '09:00 - 21:30', 'Sunday': '09:00 - 21:30'}",https://www.happycow.net/reviews/viena-capellanes-madrid-287976
41,Sanissimo - Opera,"Calle Campomanes 5,Madrid,Spain,28013",40.419001,-3.709383,175,4.5,"['Western', 'Spanish']",212,Moderado,+34-911152546,http://www.sanissimo.eu/,http://www.instagram.com/sanissimo_madrid,http://facebook.com/SanissimoOpera,"{'Monday': '13:00 - 23:30', 'Tuesday': '13:00 - 23:30', 'Wednesday': '13:00 - 23:30', 'Thursday': '13:00 - 23:30', 'Friday': '13:00 - 00:00', 'Saturday': '12:00 - 00:00', 'Sunday': '12:00 - 23:30'}",https://www.happycow.net/reviews/sanissimo-opera-madrid-73747
42,La Huerta de Almeria - Malasaña,"Calle Corredera Baja de San Pablo 47,Madrid,Spain",40.423231,-3.702921,46,4.0,['International'],90,Barato,+34-912799254,http://huertadealmeria.com/,No instagram,http://facebook.com/lahuertadealmeria,"{'Monday': '09:00 - 00:00', 'Tuesday': '09:00 - 00:00', 'Wednesday': '09:00 - 00:00', 'Thursday': '09:00 - 00:00', 'Friday': '09:00 - 00:00', 'Saturday': '09:00 - 00:00', 'Sunday': '09:00 - 00:00'}",https://www.happycow.net/reviews/la-huerta-de-almeria-madrid-81172
43,Tierra Burrito Bar - Opera,"Plaza de Isabel II, 5,Madrid,Spain,28013",40.418584,-3.709382,6,3.5,"['American', 'Mexican']",18,Barato,+34-912220476,https://tierraburritos.com/,No instagram,http://facebook.com/TierraBurritoBar,"{'Monday': '12:00 - 00:30', 'Tuesday': '12:00 - 00:30', 'Wednesday': '12:00 - 00:30', 'Thursday': '12:00 - 00:30', 'Friday': '12:00 - 00:30', 'Saturday': '12:00 - 00:30', 'Sunday': '12:00 - 00:30'}",https://www.happycow.net/reviews/tierra-burrito-bar-madrid-222943
44,Fresc Co,"Calle de las Fuentes 12,Madrid,Spain",40.417490,-3.708548,4,3.5,"['Western', 'European', 'Spanish']",9,Moderado,No phone number,http://www.frescco.com/,No instagram,No facebook,"{'Monday': '12:00 - 23:30', 'Tuesday': '12:00 - 23:30', 'Wednesday': '12:00 - 23:30', 'Thursday': '12:00 - 23:30', 'Friday': '12:00 - 23:30', 'Saturday': '12:00 - 23:30', 'Sunday': '12:00 - 23:30'}",https://www.happycow.net/reviews/fresc-co-madrid-74989
45,The Cookie Lab,"Calle del Pez, 16,Madrid,Spain,28004",40.423665,-3.705132,3,2.5,['American'],3,No price range,+34-910850640,https://thecookielab.es/,http://www.instagram.com/thecookielab_es,http://facebook.com/thecookielab1,"{'Monday': '15:00 - 21:00', 'Tuesday': '09:30 - 21:00', 'Wednesday': '09:30 - 21:00', 'Thursday': '09:30 - 21:00', 'Friday': '09:30 - 21:00', 'Saturday': '10:00 - 21:30', 'Sunday': '10:30 - 21:00'}",https://www.happycow.net/reviews/the-cookie-lab-madrid-315428
46,Ramen Shifu - Chueca,"Infantas 14 (at Plaza Pedro Zerolo),Madrid,Spain,28004",40.420759,-3.700001,8,4.0,"['Japanese', 'Asian']",19,Moderado,+34-919202729,https://www.ramenshifu.com/,http://www.instagram.com/ramenshifu,http://facebook.com/ramenshifuchueca,"{'Monday': '13:00 - 16:00, 20:00 - 23:00', 'Tuesday': '13:00 - 16:00, 20:00 - 23:00', 'Wednesday': '13:00 - 16:00, 20:00 - 23:00', 'Thursday': '13:00 - 16:00, 20:00 - 23:00', 'Friday': '13:00 - 16:00, 20:00 - 23:00', 'Saturday': '13:00 - 16:00, 20:00 - 23:00', 'Sunday': '13:00 - 16:00, 20:00 - 23:00'}",https://www.happycow.net/reviews/ramen-shifu-madrid-223352
47,Ramen Shifu  - Plaza España,"C de Isabel la Católica, 15,Madrid,Spain,28013",40.421566,-3.709382,7,4.0,"['Japanese', 'Asian']",14,Moderado,+34-911448402,http://ramenshifu.com/,http://www.instagram.com/ramenshifu,http://facebook.com/RamenShifu,"{'Monday': 'Closed', 'Tuesday': '13:00 - 16:30, 20:00 - 23:30', 'Wednesday': '13:00 - 16:30, 20:00 - 23:30', 'Thursday': '13:00 - 16:30, 20:00 - 23:30', 'Friday': '13:00 - 16:30, 20:00 - 00:00', 'Saturday': '13:00 - 16:30, 20:00 - 00:00', 'Sunday': '13:00 - 16:30, 20:00 - 00:00'}",https://www.happycow.net/reviews/ramen-shifu-madrid-259110
48,La Rollerie - Mayor,"Calle Mayor 24,Madrid,Spain",40.416447,-3.707221,11,3.0,['Spanish'],9,Barato,+34-917569271,http://larollerie.com/,No instagram,No facebook,"{'Monday': '18:00 - 02:00', 'Tuesday': '18:00 - 02:00', 'Wednesday': '18:00 - 02:00', 'Thursday': '18:00 - 02:00', 'Friday': '18:00 - 02:00', 'Saturday': '18:00 - 02:00', 'Sunday': '18:00 - 02:00'}",https://www.happycow.net/reviews/la-rollerie-madrid-86547
49,Taquería Mi Ciudad,"Calle de las Hileras 5,Madrid,Spain,28013",40.416958,-3.708387,0,0,['Mexican'],0,Barato,+34-915598711,https://taqueriamiciudad.com/,http://www.instagram.com/taqueriamiciudad,No facebook,"{'Monday': '13:30 - 16:30, 20:00 - 00:30', 'Tuesday': '13:30 - 16:30, 20:00 - 00:30', 'Wednesday': '13:30 - 16:30, 20:00 - 00:00', 'Thursday': '13:30 - 16:30, 20:00 - 00:30', 'Friday': '13:30 - 16:30, 20:00 - 00:30', 'Saturday': '13:30 - 16:30, 20:00 - 00:30', 'Sunday': '13:30 - 16:30, 20:00 - 00:00'}",https://www.happycow.net/reviews/taqueria-mi-ciudad-madrid-415118
50,Oakberry,"Calle de Esparteros, 8,Madrid,Spain,28012",40.415923,-3.705269,7,5.0,"['International', 'Brazilian']",23,No price range,No phone number,https://oakberry.com/,http://www.instagram.com/oakberry,http://facebook.com/oakberryacaies,"{'Monday': '10:00 - 21:30', 'Tuesday': '09:30 - 21:30', 'Wednesday': '09:30 - 21:30', 'Thursday': '09:30 - 21:30', 'Friday': '09:30 - 21:30', 'Saturday': '09:30 - 21:30', 'Sunday': '10:00 - 21:30'}",https://www.happycow.net/reviews/oakberry-madrid-312080
51,HanSo Café,"Calle Pez 20, Centro,Madrid,Spain,28004",40.423937,-3.705417,1,5.0,['Asian'],1,No price range,+34-911375429,https://hansocafe.es/,http://www.instagram.com/hansocaf,http://facebook.com/hansocafe,"{'Monday': '09:00 - 20:00', 'Tuesday': '09:00 - 20:00', 'Wednesday': '09:00 - 20:00', 'Thursday': '09:00 - 20:00', 'Friday': '09:00 - 20:00', 'Saturday': '10:00 - 20:00', 'Sunday': '10:00 - 20:00'}",https://www.happycow.net/reviews/hanso-cafe-madrid-404097
52,Isla Cake,"Calle de las Fuentes, 6,Madrid,Spain,28013",40.417098,-3.708653,3,4.5,[],11,No price range,+34-633913439,No website,http://www.instagram.com/islacake_madrid,http://facebook.com/ISLACAKE_Madrid-105553674368672,"{'Monday': 'Closed', 'Tuesday': '13:00 - 21:00', 'Wednesday': '13:00 - 21:00', 'Thursday': '13:00 - 21:00', 'Friday': '13:00 - 21:00', 'Saturday': '13:00 - 21:00', 'Sunday': '13:00 - 21:00'}",https://www.happycow.net/reviews/isla-cake-madrid-294674
53,The Goood Açaí Club,"C/ de Hortaleza, 25, Centro,Madrid,Spain,28004",40.421778,-3.700154,0,0,['Brazilian'],0,Moderado,+34-910406872,No website,http://www.instagram.com/the_goood_acai_club,No facebook,"{'Monday': '10:00 - 22:00', 'Tuesday': '10:00 - 22:00', 'Wednesday': '10:00 - 22:00', 'Thursday': '10:00 - 22:00', 'Friday': '10:00 - 22:00', 'Saturday': '10:00 - 22:00', 'Sunday': '10:00 - 22:00'}",https://www.happycow.net/reviews/the-goood-acai-club-madrid-434138
54,Bresca - Virgen de los Peligros,"C. de la Virgen de los Peligros, 7,Madrid,Spain,28013",40.418762,-3.699778,3,4.0,"['Italian', 'Spanish']",9,Moderado,+34-914126605,https://bresca.es/virgen-de-los-peligros/,http://www.instagram.com/brescataberna/,http://facebook.com/brescataberna,"{'Monday': '12:00 - 00:00', 'Tuesday': '12:00 - 00:00', 'Wednesday': '12:00 - 00:00', 'Thursday': '12:00 - 00:00', 'Friday': '12:00 - 01:00', 'Saturday': '12:00 - 01:00', 'Sunday': '12:00 - 00:00'}",https://www.happycow.net/reviews/bresca-madrid-362972
55,Wolføx,"C. de Pérez Galdós, 2, Centro,Madrid,Spain,28004",40.422478,-3.700740,2,4.5,[],1,No price range,No phone number,https://www.wolfox.coffee/,http://www.instagram.com/wolfoxmadrid,No facebook,"{'Monday': '10:00 - 19:00', 'Tuesday': '10:00 - 19:00', 'Wednesday': '10:00 - 19:00', 'Thursday': '10:00 - 19:00', 'Friday': '10:00 - 19:00', 'Saturday': '10:00 - 19:00', 'Sunday': '10:00 - 19:00'}",https://www.happycow.net/reviews/wolfoex-madrid-409079
56,Vibar,"12 Calle de Alcalá,Madrid,Spain,28014",40.417187,-3.700859,9,4.5,[],27,No price range,+34-919994060,http://www.vibar.es/,No instagram,No facebook,"{'Monday': '12:00 - 00:00', 'Tuesday': '12:00 - 00:00', 'Wednesday': '12:00 - 00:00', 'Thursday': '12:00 - 00:00', 'Friday': '12:00 - 01:00', 'Saturday': '12:00 - 01:00', 'Sunday': '12:00 - 00:00'}",https://www.happycow.net/reviews/vibar-madrid-276612
57,El Patrón,"Calle de Bordadores, 2,Madrid,Spain,28013",40.416403,-3.707630,1,3.0,['Mexican'],5,Moderado,+34-678110432,https://patrontaqueria.com/,http://www.instagram.com/patrontaqueria,http://facebook.com/ElPatronTaqueriaMadrid,"{'Monday': '14:00 - 22:00', 'Tuesday': '14:00 - 22:00', 'Wednesday': '14:00 - 22:00', 'Thursday': '14:00 - 22:00', 'Friday': '16:00 - 00:00', 'Saturday': '16:00 - 00:00', 'Sunday': '14:00 - 22:00'}",https://www.happycow.net/reviews/el-patron-taqueria-madrid-293410
58,Tiki Taco - Clavel,"Calle del Clavel, 5,Madrid,Spain,28004",40.420301,-3.699505,7,3.5,['Mexican'],34,Moderado,No phone number,No website,http://www.instagram.com/taqueria.tikitaco,No facebook,"{'Monday': '13:00 - 01:00', 'Tuesday': '13:00 - 01:00', 'Wednesday': '13:00 - 01:00', 'Thursday': '13:00 - 01:00', 'Friday': '13:00 - 01:00', 'Saturday': '13:00 - 01:00', 'Sunday': '13:00 - 01:00'}",https://www.happycow.net/reviews/tiki-taco-clavel-madrid-247937
59,Pan y Pepinillos Café,"Calle del Escorial, 2,Madrid,Spain,28004",40.423764,-3.702707,2,3.0,[],0,No price range,No phone number,http://panypepinilloscafe.com/,http://www.instagram.com/panypepinilloscafe/,No facebook,"{'Monday': '08:00 - 20:00', 'Tuesday': '08:00 - 20:00', 'Wednesday': '08:00 - 20:00', 'Thursday': '08:00 - 20:00', 'Friday': '08:00 - 20:00', 'Saturday': '08:00 - 20:00', 'Sunday': '08:00 - 20:00'}",https://www.happycow.net/reviews/pan-y-pepinillos-cafe-madrid-406905
60,Yerbabuena - Bordadores,"Bordadores, 3,Madrid,Spain,28013",40.416370,-3.707760,159,4.0,"['Fusion', 'Spanish']",164,Moderado,+34-915994805,http://www.yerbabuena.ws/,No instagram,http://facebook.com/restaurantevegetarianoyerbabuena,"{'Monday': 'Closed', 'Tuesday': '13:00 - 16:30, 20:00 - 23:30', 'Wednesday': '13:00 - 16:30, 20:00 - 23:30', 'Thursday': '13:00 - 16:30, 20:00 - 23:30', 'Friday': '13:00 - 16:30, 20:00 - 23:30', 'Saturday': '13:00 - 16:30, 20:00 - 23:30', 'Sunday': '13:00 - 16:30'}",https://www.happycow.net/reviews/yerbabuena-madrid-5629
61,Bambubox,"Calle del Clavel 7, Centro,Madrid,Spain,28004",40.420466,-3.699426,1,4.0,"['Thai', 'Asian']",2,Caro,+34-910146103,http://www.bambubox.com/,http://www.instagram.com/bambubox,No facebook,"{'Monday': '13:00 - 16:30, 20:00 - 23:30', 'Tuesday': '13:00 - 16:30, 20:00 - 23:30', 'Wednesday': '13:00 - 16:30, 20:00 - 23:30', 'Thursday': '13:00 - 16:30, 20:00 - 23:30', 'Friday': '13:00 - 16:30, 20:00 - 00:00', 'Saturday': '13:00 - 16:30, 20:00 - 00:00', 'Sunday': '13:00 - 16:30, 20:00 - 23:30'}",https://www.happycow.net/reviews/bambubox-madrid-415124
62,Impasta,"Calle de las Hileras, 2,Madrid,Spain,28013",40.416803,-3.708571,2,3.0,['Italian'],12,Moderado,+34-918663878,http://www.impasta-es.bar/,No instagram,http://facebook.com/impasta.madrid,"{'Monday': '13:00 - 16:00, 20:00 - 23:00', 'Tuesday': '13:00 - 16:00, 20:00 - 23:00', 'Wednesday': '13:00 - 16:00, 20:00 - 23:00', 'Thursday': '13:00 - 16:00, 20:00 - 23:00', 'Friday': '13:00 - 16:00, 20:00 - 23:00', 'Saturday': '13:00 - 16:00, 20:00 - 23:00', 'Sunday': '13:00 - 16:00, 20:00 - 23:00'}",https://www.happycow.net/reviews/impasta-madrid-200709
63,Tierra Burrito Bar - Espoz y Mina,"Calle de Espoz y Mina, 8,Madrid,Spain,28012",40.416031,-3.702636,13,3.5,"['American', 'Mexican']",22,Barato,+34-911736964,http://www.tierraburritos.com/,No instagram,http://facebook.com/TierraBurritoBar,"{'Monday': '12:00 - 00:30', 'Tuesday': '12:00 - 00:30', 'Wednesday': '12:00 - 00:30', 'Thursday': '12:00 - 00:30', 'Friday': '12:00 - 00:30', 'Saturday': '12:00 - 00:30', 'Sunday': '12:00 - 00:30'}",https://www.happycow.net/reviews/tierra-burrito-bar-madrid-109788
64,UDON - Chueca,"Calle del Clavel, 6,Madrid,Spain,28004",40.420253,-3.699236,14,4.0,"['Japanese', 'Asian']",33,Moderado,+34-915323369,http://udon.es/,No instagram,http://facebook.com/UDONChueca,"{'Monday': '13:00 - 00:00', 'Tuesday': '13:00 - 00:00', 'Wednesday': '13:00 - 00:00', 'Thursday': '13:00 - 00:00', 'Friday': '13:00 - 00:00', 'Saturday': '13:00 - 00:00', 'Sunday': '13:00 - 00:00'}",https://www.happycow.net/reviews/udon-madrid-140514
65,Tacita De Plata,"C. Mayor, 31, Centro,Madrid,Spain,28012",40.416063,-3.707432,1,3.0,['Spanish'],1,No price range,+34-615489123,https://chocolateriatacitadeplata.es/,http://www.instagram.com/chocotacita,No facebook,"{'Monday': '08:00 - 22:00', 'Tuesday': '08:00 - 22:00', 'Wednesday': '08:00 - 22:00', 'Thursday': '08:00 - 22:00', 'Friday': '08:00 - 22:00', 'Saturday': '08:00 - 22:00', 'Sunday': '08:00 - 22:00'}",https://www.happycow.net/reviews/tacita-de-plata-madrid-415064
66,JUNGLEKING,"Calle del Marqués Viudo de Pontejos, 15,Madrid,Spain,28012",40.415624,-3.705996,3,4.0,"['American', 'European', 'Spanish']",10,Moderado,+34-628639617,https://www.jungleking.es/,No instagram,No facebook,"{'Monday': '09:00 - 23:00', 'Tuesday': '09:00 - 23:00', 'Wednesday': '09:00 - 23:00', 'Thursday': '09:00 - 23:00', 'Friday': '09:00 - 00:00', 'Saturday': '09:00 - 00:00', 'Sunday': '09:00 - 23:00'}",https://www.happycow.net/reviews/jungleking-madrid-363337
67,BLoved Veggie Corner,"Hotel Catalonia, Gran Vía 9,Madrid,Spain,28013",40.419471,-3.699086,39,4.0,"['Mediterranean', 'European', 'Spanish']",55,Caro,+34-915325568,https://www.blovedveggiecorner.com/es,No instagram,http://facebook.com/restBLoved,"{'Monday': '13:00 - 23:00', 'Tuesday': '13:00 - 23:00', 'Wednesday': '13:00 - 23:00', 'Thursday': '13:00 - 23:00', 'Friday': '13:00 - 23:00', 'Saturday': '13:00 - 23:00', 'Sunday': '13:00 - 23:00'}",https://www.happycow.net/reviews/bloved-veggie-corner-madrid-157809
68,Kuraya,"Plaza de Herradores, 7,Madrid,Spain,28013",40.416625,-3.708834,1,4.0,"['Japanese', 'Asian']",2,Moderado,+34-910411646,https://www.kuraya.es/,http://www.instagram.com/ramenkuraya,No facebook,"{'Monday': '13:00 - 16:00, 20:30 - 23:30', 'Tuesday': '13:00 - 16:00, 20:30 - 23:30', 'Wednesday': '13:00 - 16:00, 20:30 - 23:30', 'Thursday': '13:00 - 16:00, 20:30 - 23:30', 'Friday': '13:00 - 16:00, 20:30 - 23:30', 'Saturday': '13:00 - 16:00, 20:30 - 23:30', 'Sunday': '13:00 - 16:00, 20:30 - 23:30'}",https://www.happycow.net/reviews/kuraya-madrid-403087
69,Ramen Kagura Chueca,"C de San Marcos, 8,Madrid,Spain,28004",40.421583,-3.699384,4,3.0,"['Japanese', 'Asian']",10,Moderado,+34-915249130,https://www.ramenkagura.com/,No instagram,http://facebook.com/profile.php?id=102716931745200,"{'Monday': '13:00 - 16:00, 20:30 - 23:30', 'Tuesday': '13:00 - 16:00, 20:30 - 23:30', 'Wednesday': '13:00 - 16:00, 20:30 - 23:30', 'Thursday': '13:00 - 16:00, 20:30 - 23:30', 'Friday': '13:00 - 16:00, 20:30 - 23:30', 'Saturday': '13:00 - 16:00, 20:30 - 23:30', 'Sunday': '13:00 - 16:00, 20:30 - 23:30'}",https://www.happycow.net/reviews/ramen-kagura-chueca-madrid-298848
70,Teapots,"Calle de Postas, 26,Madrid,Spain,28012",40.415547,-3.706438,22,5.0,['European'],50,No price range,+34-913642121,http://www.teapots.es/,http://www.instagram.com/teapotsmadrid,http://facebook.com/TeapotsMadrid,"{'Monday': '09:30 - 19:30', 'Tuesday': 'Closed', 'Wednesday': '09:30 - 19:30', 'Thursday': '09:30 - 19:30', 'Friday': '09:30 - 19:30', 'Saturday': '09:30 - 19:30', 'Sunday': '09:30 - 19:30'}",https://www.happycow.net/reviews/teapots-madrid-257070
71,Honest Greens - Gran Via,"Gran Via 7,Madrid,Spain,28013",40.419420,-3.698945,40,4.0,"['International', 'European']",41,Moderado,+34-931227664,https://honestgreens.com/,http://www.instagram.com/honestgreens,http://facebook.com/honestgreens.spain,"{'Monday': '08:30 - 23:00', 'Tuesday': '08:30 - 23:00', 'Wednesday': '08:30 - 23:00', 'Thursday': '08:30 - 23:00', 'Friday': '08:30 - 00:00', 'Saturday': '09:30 - 00:00', 'Sunday': '09:30 - 23:00'}",https://www.happycow.net/reviews/honest-greens-madrid-299584
72,Hungry Panda,"3 Plaza de San Ildefonso,Madrid,Spain,28004",40.424056,-3.702365,2,4.0,['Asian'],1,Moderado,+34-669277815,No website,http://www.instagram.com/hungrypanda_madrid,No facebook,"{'Monday': 'Closed', 'Tuesday': '13:00 - 23:30', 'Wednesday': '13:00 - 23:30', 'Thursday': '13:00 - 23:30', 'Friday': '13:00 - 01:00', 'Saturday': '13:00 - 01:00', 'Sunday': '13:00 - 23:30'}",https://www.happycow.net/reviews/hungry-panda-madrid-375179
73,New Freedom Cakes Cafe,"Calle de Barcelona, 3,Madrid,Spain,28012",40.415579,-3.702632,17,4.0,"['Mediterranean', 'Spanish']",48,Moderado,+34-913153077,https://freedomcakes.es/new-freedom,http://www.instagram.com/FreedomCakes,http://facebook.com/Freedomcakesvegan,"{'Monday': '16:00 - 02:00', 'Tuesday': '16:00 - 02:00', 'Wednesday': '16:00 - 02:00', 'Thursday': '16:00 - 02:00', 'Friday': '16:00 - 02:30', 'Saturday': '12:00 - 02:30', 'Sunday': '12:00 - 02:00'}",https://www.happycow.net/reviews/freedom-cakes-cafe-madrid-384752
74,BisuPizza,"C. del Espejo, 10,Madrid,Spain,28013",40.417010,-3.709630,2,4.0,['Italian'],3,Barato,+34-910333625,No website,http://www.instagram.com/bisupizza/,No facebook,"{'Monday': '12:30 - 16:00, 20:00 - 00:00', 'Tuesday': '12:30 - 16:00, 20:00 - 00:00', 'Wednesday': '12:30 - 16:00, 20:00 - 00:00', 'Thursday': '12:30 - 16:00, 20:00 - 00:00', 'Friday': '12:30 - 16:00, 20:00 - 00:00', 'Saturday': '12:30 - 00:00', 'Sunday': '12:30 - 16:00, 20:00 - 00:00'}",https://www.happycow.net/reviews/bisupizza-madrid-395696
75,Bar Gyoza Go!,"Plaza del Comandante las Morenas, 5,Madrid,Spain,28013",40.416171,-3.708568,6,3.5,"['Chinese', 'Japanese', 'Asian']",22,Barato,+34-911198033,No website,No instagram,No facebook,"{'Monday': '11:00 - 00:00', 'Tuesday': '11:00 - 00:00', 'Wednesday': '11:00 - 00:00', 'Thursday': '11:00 - 00:00', 'Friday': '11:00 - 00:00', 'Saturday': '11:00 - 00:00', 'Sunday': '11:00 - 00:00'}",https://www.happycow.net/reviews/bar-gyoza-go-madrid-222495
76,Amorino - Mayor,"Mayor 40,Madrid,Spain,28013",40.416095,-3.708446,13,4.0,[],15,No price range,+34-917583355,http://www.amorino.com/fr/boutique/madrid-mayor.64.html,http://www.instagram.com/amorinogelato,http://facebook.com/AmorinoGelato,"{'Monday': '12:00 - 00:00', 'Tuesday': '12:00 - 00:00', 'Wednesday': '12:00 - 00:00', 'Thursday': '12:00 - 00:00', 'Friday': '12:00 - 01:00', 'Saturday': '12:00 - 01:00', 'Sunday': '12:00 - 00:00'}",https://www.happycow.net/reviews/amorino-madrid-81608
77,Crêperie La Rue,"C. de Colón, 14,Madrid,Spain,28004",40.423881,-3.701506,2,3.5,"['European', 'French']",2,Moderado,+34-911897087,http://creperielarue.com/,http://www.instagram.com/larue.creperie/,http://facebook.com/LaRue.Creperiee/,"{'Monday': '10:00 - 23:30', 'Tuesday': '10:00 - 23:30', 'Wednesday': '10:00 - 23:30', 'Thursday': '10:00 - 23:30', 'Friday': '10:00 - 00:30', 'Saturday': '10:00 - 00:30', 'Sunday': '10:00 - 23:30'}",https://www.happycow.net/reviews/creperie-la-rue-madrid-407886
78,Mistura - Augusto Figueroa,"Calle de Augusto Figueroa, 5,Madrid,Spain,28004",40.422973,-3.700137,6,4.0,[],15,No price range,+34-917556391,http://misturaicecream.com/,No instagram,http://facebook.com/misturaicecream/,"{'Monday': '11:30 - 22:30', 'Tuesday': '11:30 - 22:30', 'Wednesday': '11:30 - 22:30', 'Thursday': '11:30 - 22:30', 'Friday': '11:30 - 00:00', 'Saturday': '11:30 - 00:00', 'Sunday': '11:30 - 22:30'}",https://www.happycow.net/reviews/mistura-madrid-204430
79,Salt in Cake,"C/ de Hortaleza, 37, bajo F, Centro,Madrid,Spain,28004",40.422438,-3.699602,0,0,['American'],1,No price range,+34-910408294,https://saltincake.com/,http://www.instagram.com/saltincake.madrid,http://facebook.com/saltincake,"{'Monday': '11:00 - 23:00', 'Tuesday': '11:00 - 23:00', 'Wednesday': '11:00 - 23:00', 'Thursday': '11:00 - 23:00', 'Friday': '11:00 - 00:00', 'Saturday': '11:00 - 00:00', 'Sunday': '11:00 - 23:00'}",https://www.happycow.net/reviews/salt-in-cake-madrid-414915
80,La Bicicleta,"Plaza de San Ildefonso, 9,Madrid,Spain,28004",40.424129,-3.701721,4,4.5,"['Western', 'Spanish']",3,No price range,+34-915329742,https://www.labicicletacafe.com/,http://www.instagram.com/labicicletacafe,http://facebook.com/labicicletacafe,"{'Monday': '10:00 - 01:00', 'Tuesday': '10:00 - 01:00', 'Wednesday': '10:00 - 01:00', 'Thursday': '10:00 - 01:00', 'Friday': '10:00 - 02:00', 'Saturday': '10:00 - 02:00', 'Sunday': '10:00 - 01:00'}",https://www.happycow.net/reviews/la-bicicleta-madrid-282206
81,Trek Taco,"74 Calle Gran Vía,Madrid,Spain,28015",40.423066,-3.709699,2,1.5,['Mexican'],4,Moderado,No phone number,No website,No instagram,http://facebook.com/Trek-Taco-110272944740951,"{'Monday': '13:00 - 00:00', 'Tuesday': '13:00 - 00:00', 'Wednesday': '13:00 - 00:00', 'Thursday': '13:00 - 02:00', 'Friday': '13:00 - 02:00', 'Saturday': '13:00 - 02:00', 'Sunday': '13:00 - 00:00'}",https://www.happycow.net/reviews/trek-taco-madrid-263776
82,Goconut,"C. Mayor, 47,Madrid,Spain,28013",40.415931,-3.708492,1,4.0,[],1,No price range,No phone number,https://www.goconut.es/,http://www.instagram.com/goconut_es,No facebook,"{'Monday': '10:00 - 22:00', 'Tuesday': '10:00 - 22:00', 'Wednesday': '10:00 - 22:00', 'Thursday': '10:00 - 22:00', 'Friday': '10:00 - 22:00', 'Saturday': '10:00 - 22:00', 'Sunday': '11:00 - 22:00'}",https://www.happycow.net/reviews/goconut-madrid-408414
83,Mistura - Ciudad Rodrigo,"Calle de Ciudad Rodrigo, 6,Madrid,Spain,28012",40.415800,-3.708488,10,4.5,[],30,No price range,+34-810524641,http://misturaicecream.com/,No instagram,http://facebook.com/misturaicecream/,"{'Monday': '10:00 - 23:00', 'Tuesday': '10:00 - 23:00', 'Wednesday': '10:00 - 23:00', 'Thursday': '10:00 - 23:00', 'Friday': '10:00 - 00:00', 'Saturday': '10:00 - 00:00', 'Sunday': '10:00 - 23:00'}",https://www.happycow.net/reviews/mistura-madrid-149626
84,Sol y Roll,"C de San Marcos, 11,Madrid,Spain,28004",40.421612,-3.698740,7,3.5,"['International', 'Mediterranean']",8,Moderado,+34-916001622,https://onlytap.io/jgnldl,http://www.instagram.com/solyroll,http://facebook.com/solyroll,"{'Monday': 'Closed', 'Tuesday': '13:00 - 16:00, 19:30 - 00:00', 'Wednesday': '13:00 - 16:00, 19:30 - 00:00', 'Thursday': '13:00 - 16:00, 19:30 - 00:00', 'Friday': '13:00 - 16:00, 19:30 - 00:00', 'Saturday': '13:00 - 16:00, 19:30 - 00:00', 'Sunday': '13:00 - 16:00, 19:30 - 00:00'}",https://www.happycow.net/reviews/sol-y-roll-madrid-287304
85,Shangrila Dimsum,"C. de Leganitos, 26,Madrid,Spain,28013",40.422396,-3.710523,0,0,"['Asian', 'Fusion']",2,Barato,+34-919355448,No website,http://www.instagram.com/shangrila_dimsum,No facebook,"{'Monday': '13:00 - 23:30', 'Tuesday': '13:00 - 23:30', 'Wednesday': '13:00 - 23:30', 'Thursday': '13:00 - 23:30', 'Friday': '13:00 - 23:30', 'Saturday': '13:00 - 23:30', 'Sunday': '13:00 - 23:30'}",https://www.happycow.net/reviews/shangrila-dimsum-madrid-384928
86,Thunder Vegan - Malasaña,"Calle Don Felipe, 4,Madrid,Spain,28004",40.424533,-3.702365,94,4.5,['American'],214,Moderado,+34-912858518,https://thunderveganfood.com/,http://www.instagram.com/thunder_vegan,http://facebook.com/Thunder-VEGAN-FOOD-103073634373731,"{'Monday': '13:00 - 23:00', 'Tuesday': '13:00 - 23:00', 'Wednesday': '13:00 - 23:00', 'Thursday': '13:00 - 23:00', 'Friday': '13:00 - 23:30', 'Saturday': '13:00 - 23:30', 'Sunday': '13:00 - 23:00'}",https://www.happycow.net/reviews/thunder-vegan-madrid-171899
87,The Cookie Lab ,"C. de San Bartolomé, 7,Madrid,Spain,28004",40.421579,-3.698686,1,4.0,[],1,No price range,+34-631046538,https://thecookielab.es/,http://www.instagram.com/thecookielab_es,http://facebook.com/thecookielab1,"{'Monday': '09:30 - 21:00', 'Tuesday': '09:30 - 21:00', 'Wednesday': '09:30 - 21:00', 'Thursday': '09:30 - 21:00', 'Friday': '09:30 - 21:00', 'Saturday': '09:30 - 21:00', 'Sunday': '10:00 - 21:00'}",https://www.happycow.net/reviews/the-cookie-lab-madrid-393837
88,That's Amore,"C de Pelayo, 6,Madrid,Spain,28004",40.421975,-3.698862,1,4.0,['Italian'],0,Moderado,+34-912325357,No website,No instagram,http://facebook.com/thatsamorenapoletana,"{'Monday': '19:00 - 23:00', 'Tuesday': 'Closed', 'Wednesday': '19:00 - 23:00', 'Thursday': '19:00 - 23:00', 'Friday': '13:30 - 17:00, 19:00 - 23:30', 'Saturday': '13:30 - 17:00, 19:00 - 23:30', 'Sunday': '13:30 - 17:00, 19:00 - 23:30'}",https://www.happycow.net/reviews/thats-amore-madrid-406867
89,Biang Biang Bar,"C. de Pelayo, 8,Madrid,Spain,28004",40.422091,-3.698903,3,3.5,['Chinese'],4,Moderado,+34-605318790,https://biangbiangbar.com/,http://www.instagram.com/biangbiangbar,http://facebook.com/biangbiangbar,"{'Monday': '13:00 - 16:00, 20:00 - 22:30', 'Tuesday': 'Closed', 'Wednesday': '13:00 - 15:30, 20:00 - 22:30', 'Thursday': '13:00 - 15:30, 20:00 - 22:30', 'Friday': '13:00 - 15:30, 20:00 - 22:30', 'Saturday': '13:00 - 16:00, 20:00 - 22:30', 'Sunday': '13:00 - 16:00, 20:00 - 22:30'}",https://www.happycow.net/reviews/biang-biang-bar-madrid-360097
90,VEGA - Alamo,"Calle Alamo, 3,Madrid,Spain,28015",40.423840,-3.709115,174,4.5,"['Mediterranean', 'Fusion', 'Spanish']",259,Moderado,+34-910703719,http://www.govega.es/,No instagram,http://facebook.com/vegaconsciente,"{'Monday': '13:30 - 23:00', 'Tuesday': '13:30 - 23:00', 'Wednesday': '13:30 - 23:00', 'Thursday': '13:30 - 23:00', 'Friday': '13:30 - 23:00', 'Saturday': '13:30 - 23:30', 'Sunday': '13:30 - 23:30'}",https://www.happycow.net/reviews/vega-alamo-madrid-174548
91,Eccolo Gelato,"Calle de la Cruz, 25,Madrid,Spain,28012",40.415289,-3.702082,5,4.0,[],18,No price range,+34-669005611,No website,No instagram,http://facebook.com/eccologelatomadrid,"{'Monday': '16:00 - 01:00', 'Tuesday': '16:00 - 01:00', 'Wednesday': '16:00 - 01:00', 'Thursday': '16:00 - 01:00', 'Friday': '16:00 - 01:00', 'Saturday': '15:00 - 01:00', 'Sunday': '15:00 - 01:00'}",https://www.happycow.net/reviews/eccolo-gelato-madrid-229611
92,La Hummuseria,"Calle Hernan Cortes 8,Madrid,Spain,28004",40.423435,-3.700027,75,4.5,['Mediterranean'],162,Barato,+34-910226240,http://www.lahummuseria.es/,No instagram,http://facebook.com/lahummuseria,"{'Monday': 'Closed', 'Tuesday': 'Closed', 'Wednesday': '13:30 - 16:30, 20:30 - 23:30', 'Thursday': '13:30 - 16:30, 20:30 - 23:30', 'Friday': '13:30 - 16:30, 20:30 - 23:30', 'Saturday': '13:30 - 23:30', 'Sunday': '20:30 - 23:30'}",https://www.happycow.net/reviews/la-hummuseria-madrid-65872
93,LULULU,"3 Corredera Alta de San Pablo,Madrid,Spain,28004",40.424637,-3.702226,0,0,[],1,No price range,+34-686990020,https://lululuartisanal.com/,http://www.instagram.com/lululuartisanal/,No facebook,"{'Monday': '10:00 - 22:00', 'Tuesday': '10:00 - 22:00', 'Wednesday': '10:00 - 22:00', 'Thursday': '10:00 - 22:00', 'Friday': '10:00 - 22:00', 'Saturday': '10:00 - 22:00', 'Sunday': '10:00 - 22:00'}",https://www.happycow.net/reviews/lululu-madrid-403702
94,Bucólico Café,"C. de Barbieri, 4,Madrid,Spain,28004",40.420668,-3.698224,1,5.0,"['European', 'Spanish']",1,No price range,+34-663316039,https://bucolicocafe.es/,http://www.instagram.com/bucolicocafe,No facebook,"{'Monday': '08:30 - 14:00', 'Tuesday': '08:30 - 14:00', 'Wednesday': '08:30 - 14:00', 'Thursday': '08:30 - 14:00', 'Friday': '08:30 - 14:00', 'Saturday': '08:30 - 14:00', 'Sunday': '08:30 - 14:00'}",https://www.happycow.net/reviews/bucolico-cafe-madrid-414093
95,Urbano Specialty Coffee,"Calle Santa Bárbara, 8,Madrid,Spain,28004",40.424363,-3.701492,18,4.0,['European'],51,Barato,+34-918799008,No website,No instagram,http://facebook.com/UrbanoSpecialtyCoffee,"{'Monday': '09:30 - 19:00', 'Tuesday': '09:30 - 19:00', 'Wednesday': 'Closed', 'Thursday': '09:30 - 19:00', 'Friday': '09:30 - 19:00', 'Saturday': '09:30 - 19:00', 'Sunday': '09:30 - 19:00'}",https://www.happycow.net/reviews/urbano-madrid-162687
96,Mazál Bagels & Café – Ópera,"Calle de Sta. Clara, 10,Madrid,Spain,28013",40.417427,-3.710793,0,0,['American'],0,Moderado,+34-919295954,https://www.mazalmadrid.com/,http://www.instagram.com/mazalbagels,http://facebook.com/mazalbagels,"{'Monday': '09:30 - 20:30', 'Tuesday': '09:30 - 20:30', 'Wednesday': '09:30 - 20:30', 'Thursday': '09:30 - 22:00', 'Friday': '09:30 - 22:00', 'Saturday': '09:30 - 22:00', 'Sunday': '09:30 - 20:30'}",https://www.happycow.net/reviews/mazal-bagels-cafe-opera-madrid-422028
97,La Desayuneria - Barbieri,"Calle de Barbieri, 4,Madrid,Spain,28004",40.420659,-3.698157,3,3.5,"['American', 'Spanish']",4,Moderado,+34-915930893,https://www.ladesayuneria.com/,http://www.instagram.com/la_desayuneria_officia,http://facebook.com/ladesayuneriaofficial,"{'Monday': '09:00 - 21:00', 'Tuesday': '09:00 - 21:00', 'Wednesday': '09:00 - 21:00', 'Thursday': '09:00 - 21:00', 'Friday': '09:00 - 21:00', 'Saturday': '09:00 - 21:00', 'Sunday': '09:00 - 21:00'}",https://www.happycow.net/reviews/la-desayuneria-madrid-347203
98,Chök,"Calle Augusto Figueroa 16,Madrid,Spain,28004",40.422480,-3.698952,36,4.5,[],62,No price range,+34-910070662,http://www.chokbarcelona.com/,No instagram,No facebook,"{'Monday': '09:00 - 21:00', 'Tuesday': '09:00 - 21:00', 'Wednesday': '09:00 - 21:00', 'Thursday': '09:00 - 21:00', 'Friday': '09:00 - 21:00', 'Saturday': '09:00 - 21:00', 'Sunday': '09:00 - 21:00'}",https://www.happycow.net/reviews/choek-madrid-198367
99,Cultura Café Creperie,"Calle de Fuencarral, 57, Centro (at Mercado de San Ildefonso),Madrid,Spain,28004",40.424182,-3.700898,0,0,"['European', 'French', 'Spanish']",0,Moderado,+34-602648787,No website,http://www.instagram.com/cultcafe.rp,http://facebook.com/100063919400404,"{'Monday': '13:00 - 00:00', 'Tuesday': '13:00 - 00:00', 'Wednesday': '13:00 - 00:00', 'Thursday': '13:00 - 00:00', 'Friday': '13:00 - 01:00', 'Saturday': '13:00 - 01:00', 'Sunday': '13:00 - 00:00'}",https://www.happycow.net/reviews/cultura-cafe-creperie-madrid-414817
100,Falafeleria - Sta Barbara,"Calle Sta Barbara, 4,Madrid,Spain,28004",40.424314,-3.701139,61,5.0,"['Mediterranean', 'Middle Eastern']",101,Moderado,+34-911727610,https://www.falafeleria.es/home-es,http://www.instagram.com/falafeleria_madrid,http://facebook.com/falafeleria,"{'Monday': '13:00 - 23:00', 'Tuesday': '13:00 - 23:00', 'Wednesday': '13:00 - 23:00', 'Thursday': '13:00 - 23:00', 'Friday': '13:00 - 23:30', 'Saturday': '13:00 - 23:30', 'Sunday': '13:00 - 23:00'}",https://www.happycow.net/reviews/falafeleria-madrid-118360
101,Misión Café,"Calle de los Reyes, 5,Madrid,Spain,28015",40.424208,-3.708787,1,3.0,['Spanish'],6,Moderado,+34-910640059,http://www.mision.cafe/,No instagram,http://facebook.com/misioncafe,"{'Monday': '09:00 - 20:00', 'Tuesday': '09:00 - 20:00', 'Wednesday': '09:00 - 20:00', 'Thursday': '09:00 - 20:00', 'Friday': '09:00 - 20:00', 'Saturday': '10:00 - 20:00', 'Sunday': '10:00 - 20:00'}",https://www.happycow.net/reviews/mision-cafe-madrid-232224
102,Aloha Poke - San Pablo,"Corredera Alta de San Pablo, 5,Madrid,Spain,28004",40.424720,-3.702104,4,3.0,['Asian'],3,Barato,+34-919901423,http://www.alohapoke.es/,http://www.instagram.com/alohapokespain,http://facebook.com/AlohaPokeSpain,"{'Monday': '11:30 - 23:30', 'Tuesday': '11:30 - 23:30', 'Wednesday': '11:30 - 23:30', 'Thursday': '11:30 - 23:30', 'Friday': '11:30 - 23:30', 'Saturday': '11:30 - 23:30', 'Sunday': '11:30 - 23:30'}",https://www.happycow.net/reviews/aloha-poke-madrid-180301
103,Mama Dumplings,"Calle de Santiago, 10,Madrid,Spain,28013",40.416455,-3.710056,3,4.0,['Chinese'],10,Barato,+34-698717297,No website,No instagram,No facebook,"{'Monday': '12:00 - 00:00', 'Tuesday': '12:00 - 00:00', 'Wednesday': '12:00 - 00:00', 'Thursday': '12:00 - 00:00', 'Friday': '12:00 - 00:00', 'Saturday': '12:00 - 00:00', 'Sunday': '12:00 - 00:00'}",https://www.happycow.net/reviews/mama-dumplings-madrid-343231
104,Pizzart,"58 Calle de Fuencarral ,Madrid,Spain,28004",40.424009,-3.700444,1,4.0,['Italian'],1,Moderado,+34-911088991,https://pizzartpizza.com/,http://www.instagram.com/pizzartpizza,http://facebook.com/Pizzartpizza,"{'Monday': '10:00 - 00:30', 'Tuesday': '10:00 - 00:30', 'Wednesday': '10:00 - 00:30', 'Thursday': '10:00 - 00:30', 'Friday': '10:00 - 00:30', 'Saturday': '11:00 - 00:30', 'Sunday': '11:00 - 00:30'}",https://www.happycow.net/reviews/pizzart-madrid-357602
105,Korean Kitchen,"Calle de Fuencarral, 57 (at /Inside Mercado de San Ildefonso ),Madrid,Spain,28004",40.424207,-3.700744,0,0,['Korean'],14,Moderado,+34-915591300,http://www.mercadodesanildefonso.com/,No instagram,No facebook,{'Horario': 'No hay horario'},https://www.happycow.net/reviews/korean-kitchen-madrid-289170
106,La Rollerie - San Jeronimo,"Carrera de San Jeronimo 26,Madrid,Spain",40.416491,-3.699541,8,3.0,['European'],22,Moderado,+34-914296196,http://larollerie.com/,No instagram,No facebook,"{'Monday': '08:00 - 22:00', 'Tuesday': '08:00 - 22:00', 'Wednesday': '08:00 - 22:00', 'Thursday': '08:00 - 22:00', 'Friday': '08:00 - 22:00', 'Saturday': '08:00 - 22:00', 'Sunday': '08:00 - 22:00'}",https://www.happycow.net/reviews/la-rollerie-madrid-88286
107,Demasie,"C de Augusto Figueroa, 23 Madrid, Centro,Madrid,Spain,28004",40.422651,-3.698872,0,0,['European'],0,No price range,+34-915562780,https://cookiesdemasie.com/,http://www.instagram.com/cookies_demasie,http://facebook.com/100063533534580,"{'Monday': '10:00 - 22:00', 'Tuesday': '10:00 - 22:00', 'Wednesday': '10:00 - 22:00', 'Thursday': '10:00 - 22:00', 'Friday': '10:00 - 22:00', 'Saturday': '10:00 - 22:00', 'Sunday': '10:00 - 22:00'}",https://www.happycow.net/reviews/demasie-madrid-414850
108,Yum House,"Hotel LETOHLETOH, C. de Leganitos, 41, Centro,Madrid,Spain,28013",40.422607,-3.710954,1,4.0,"['Chinese', 'Japanese', 'Asian']",0,Moderado,+34-910930827,http://www.yumhousemadrid.com/,http://www.instagram.com/yumhouse_madrid,No facebook,"{'Monday': '13:00 - 16:30, 20:00 - 23:30', 'Tuesday': '13:00 - 16:30, 20:00 - 23:30', 'Wednesday': '13:00 - 16:30, 20:00 - 23:30', 'Thursday': '13:00 - 16:30, 20:00 - 23:30', 'Friday': '13:00 - 00:00', 'Saturday': '13:00 - 00:00', 'Sunday': '13:00 - 23:30'}",https://www.happycow.net/reviews/yum-house-madrid-408425
109,Granjero Busca Campero,"C. de Barbieri, 13,Madrid,Spain,28004",40.421447,-3.698085,1,3.0,['Spanish'],3,Barato,+34-669897591,https://www.granjerobuscacampero.com/,http://www.instagram.com/granjero_busca_campero,http://facebook.com/granjerobuscacamperochueca,"{'Monday': 'Closed', 'Tuesday': '13:00 - 16:00, 19:30 - 00:00', 'Wednesday': '13:00 - 16:00, 19:30 - 00:00', 'Thursday': '13:00 - 16:00, 19:30 - 00:00', 'Friday': '13:00 - 16:00, 20:00 - 05:00', 'Saturday': '13:00 - 16:00, 20:00 - 05:00', 'Sunday': '19:30 - 00:00'}",https://www.happycow.net/reviews/granjero-busca-campero-madrid-323354
110,La Deseada,"Calle de Santiago, 20,Madrid,Spain,28013",40.416600,-3.710492,1,4.0,"['Mediterranean', 'Middle Eastern', 'Spanish']",3,Moderado,+34-603661674,http://la-deseada.metro.bar/,No instagram,No facebook,"{'Monday': '12:00 - 01:00', 'Tuesday': 'Closed', 'Wednesday': '12:00 - 01:00', 'Thursday': '12:00 - 01:00', 'Friday': '12:00 - 01:00', 'Saturday': '12:00 - 01:00', 'Sunday': '12:00 - 01:00'}",https://www.happycow.net/reviews/la-deseada-madrid-189478
111,Subway - Plaza Jacinto Benavente,"C. de Carretas, 33,Madrid,Spain,28012",40.414646,-3.703091,1,3.0,['American'],1,Moderado,+34-911384997,https://restaurants.subway.com/es_es/espana/benavente/calle-carretas-33,No instagram,http://facebook.com/subwayjacintobenavente,"{'Monday': '00:00 - 00:00', 'Tuesday': '00:00 - 00:00', 'Wednesday': '00:00 - 00:00', 'Thursday': '00:00 - 00:00', 'Friday': '00:00 - 00:00', 'Saturday': '00:00 - 00:00', 'Sunday': '00:00 - 00:00'}",https://www.happycow.net/reviews/subway-plaza-jacinto-benavente-madrid-374561
112,Hot Now,"Calle de Barbieri, 14,Madrid,Spain,28004",40.421374,-3.697965,5,4.0,['Italian'],12,Moderado,+34-910697442,https://www.hotnow.es/,No instagram,http://facebook.com/hotnow.es,"{'Monday': '20:00 - 23:00', 'Tuesday': '13:30 - 16:00, 20:00 - 23:00', 'Wednesday': '13:30 - 16:00, 20:00 - 23:30', 'Thursday': '13:30 - 16:00, 20:00 - 23:30', 'Friday': '13:30 - 16:00, 20:00 - 00:00', 'Saturday': '13:30 - 16:30, 20:00 - 00:00', 'Sunday': '13:30 - 16:00, 20:00 - 23:00'}",https://www.happycow.net/reviews/hot-now-madrid-172655
113,Greek and Shop,"Calle Corredera Alta de San Pablo, 9,Madrid,Spain,28004",40.424942,-3.702024,5,3.5,['Mediterranean'],5,Barato,+34-915326083,No website,No instagram,http://facebook.com/greekandshop,"{'Monday': '08:00 - 01:00', 'Tuesday': '08:00 - 01:00', 'Wednesday': '08:00 - 01:00', 'Thursday': '08:00 - 02:00', 'Friday': '08:00 - 02:00', 'Saturday': '08:00 - 03:00', 'Sunday': '08:00 - 01:00'}",https://www.happycow.net/reviews/greek-and-shop-madrid-149186
114,Brando Helado,"Calle de Hortaleza, 55,Madrid,Spain,28004",40.423201,-3.699108,1,3.0,['Italian'],2,No price range,+34-692435041,No website,http://www.instagram.com/brando.helado/,No facebook,"{'Monday': '14:00 - 23:30', 'Tuesday': '14:00 - 23:30', 'Wednesday': '14:00 - 23:30', 'Thursday': '14:00 - 23:30', 'Friday': '14:00 - 00:30', 'Saturday': '14:00 - 00:30', 'Sunday': '14:00 - 23:30'}",https://www.happycow.net/reviews/brando-helado-madrid-357922
115,Pick-Za,"Calle del Espiritu Santo, 16,Madrid,Spain,28004",40.425285,-3.703139,7,4.0,['Italian'],9,Barato,+34-910415763,No website,http://www.instagram.com/pickzamadrid,http://facebook.com/Pickza-Madrid-306590800010019,"{'Monday': '19:00 - 01:00', 'Tuesday': '19:00 - 01:00', 'Wednesday': '19:00 - 01:00', 'Thursday': '19:00 - 01:00', 'Friday': '19:00 - 01:00', 'Saturday': '13:00 - 17:00, 20:00 - 01:00', 'Sunday': '13:00 - 17:00, 20:00 - 00:00'}",https://www.happycow.net/reviews/pick-za-madrid-175639
116,Cocina Vegetariana Internacional - Maybe closed,"Calle Santiago 9,Madrid,Spain,28013",40.416400,-3.710509,26,4.5,"['International', 'Spanish']",88,Moderado,+34-917583588,No website,No instagram,No facebook,"{'Monday': '13:00 - 16:00', 'Tuesday': '13:00 - 17:00', 'Wednesday': '13:00 - 17:00', 'Thursday': '13:00 - 17:00, 20:00 - 23:00', 'Friday': '13:00 - 17:00, 20:00 - 23:00', 'Saturday': '13:00 - 17:00, 20:00 - 23:00', 'Sunday': '13:00 - 17:00'}",https://www.happycow.net/reviews/cocina-vegetariana-internacional-madrid-25635
117,La Paella de la Reina,"Calle de la Reina, 39,Madrid,Spain,28004",40.419741,-3.697569,7,3.5,"['Mediterranean', 'European', 'Spanish']",37,Moderado,+34-915311885,https://www.lapaelladelareina.com/,No instagram,http://facebook.com/laPaelladelaReina39,"{'Monday': '13:00 - 16:00, 19:30 - 23:30', 'Tuesday': '13:00 - 16:00, 19:30 - 23:30', 'Wednesday': '13:00 - 16:00, 19:30 - 23:30', 'Thursday': '13:00 - 16:00, 19:30 - 23:30', 'Friday': '13:00 - 16:00, 19:30 - 23:30', 'Saturday': '13:00 - 16:00, 19:30 - 23:30', 'Sunday': '13:00 - 16:00, 19:30 - 23:30'}",https://www.happycow.net/reviews/la-paella-de-la-reina-madrid-256388
118,Lilo Brunch,"C. de la Libertad, 3,Madrid,Spain,28004",40.420353,-3.697569,9,4.0,"['International', 'European']",28,Barato,+34-665945245,https://lilobrunch.com/,http://www.instagram.com/lilobrunch,No facebook,"{'Monday': '09:00 - 17:00', 'Tuesday': '09:00 - 17:00', 'Wednesday': '09:00 - 17:00', 'Thursday': '09:00 - 17:00', 'Friday': '09:00 - 17:00', 'Saturday': '09:00 - 18:00', 'Sunday': '09:00 - 18:00'}",https://www.happycow.net/reviews/lilo-brunch-madrid-336504
119,Nunuka ,"Calle de la Libertad, 13,Madrid,Spain,28004",40.420867,-3.697648,2,4.0,['European'],2,Caro,+34-911700289,https://nunukamadrid.com/reserva/,http://www.instagram.com/nunukamadrid/,http://facebook.com/Nunuka-Madrid-100085021856759/,"{'Monday': 'Closed', 'Tuesday': '13:30 - 23:30', 'Wednesday': '13:30 - 23:30', 'Thursday': '13:30 - 23:30', 'Friday': '13:30 - 23:30', 'Saturday': '13:30 - 23:30', 'Sunday': '13:30 - 23:30'}",https://www.happycow.net/reviews/nunuka-madrid-385419
120,Buenasaña,"Calle Corredera Alta de San Pablo, 11,Madrid,Spain,28004",40.425106,-3.702018,4,2.5,"['Mediterranean', 'Spanish']",6,Barato,+34-911265255,https://buenasanamadrid.com/,No instagram,No facebook,"{'Monday': '09:00 - 23:30', 'Tuesday': '09:00 - 23:30', 'Wednesday': '09:00 - 23:30', 'Thursday': '09:00 - 23:30', 'Friday': '09:00 - 01:00', 'Saturday': '09:00 - 01:00', 'Sunday': '09:00 - 01:00'}",https://www.happycow.net/reviews/buenasana-madrid-98841
121,Solo de Croquetas - Echegaray,"5 Calle de Echegaray,Madrid,Spain,28014",40.416013,-3.699573,4,2.5,['Spanish'],14,Moderado,+34-611557748,https://solodecroquetas.es/,http://www.instagram.com/solodecroquetas,http://facebook.com/solodecroquetassol,"{'Monday': '13:30 - 16:00, 19:30 - 00:00', 'Tuesday': '13:30 - 16:00, 19:30 - 00:00', 'Wednesday': '13:30 - 16:00, 19:30 - 00:00', 'Thursday': '13:30 - 16:00, 19:30 - 00:00', 'Friday': '13:30 - 16:30, 19:30 - 01:00', 'Saturday': '13:00 - 17:00, 19:30 - 01:00', 'Sunday': '13:00 - 17:00, 19:30 - 01:00'}",https://www.happycow.net/reviews/solo-de-croquetas-echegaray-madrid-308003
122,Ojalá,"Calle de San Andrés, 1,Madrid,Spain,28004",40.425521,-3.703954,0,0,"['International', 'Western', 'Mediterranean', 'Spanish']",1,Moderado,+34-915232747,https://www.grupolamusa.com/restaurante-ojala,No instagram,No facebook,"{'Monday': '09:00 - 01:00', 'Tuesday': '09:00 - 01:00', 'Wednesday': '09:00 - 01:00', 'Thursday': '09:00 - 01:30', 'Friday': '09:00 - 02:00', 'Saturday': '09:00 - 02:00', 'Sunday': '09:00 - 01:00'}",https://www.happycow.net/reviews/ojala-madrid-357928
123,Celso Y Manolo ,"Calle Libertad 1,Madrid,Spain",40.420201,-3.697477,4,3.5,['Spanish'],22,Moderado,+34-915318079,https://celsoymanolo.es/,No instagram,No facebook,"{'Monday': '13:00 - 23:00', 'Tuesday': '13:00 - 23:00', 'Wednesday': '13:00 - 23:00', 'Thursday': '13:00 - 23:00', 'Friday': '13:00 - 23:00', 'Saturday': '13:00 - 23:00', 'Sunday': '13:00 - 23:00'}",https://www.happycow.net/reviews/celso-y-manolo-madrid-240119
124,Mistura - Plaza del Angel,"Plaza del Angel, 2,Madrid,Spain,28012 ",40.414514,-3.702665,2,4.5,[],3,No price range,+34-918616734,http://www.misturaicecream.com/,No instagram,http://facebook.com/misturaicecream/,"{'Monday': '09:00 - 23:00', 'Tuesday': '09:00 - 23:00', 'Wednesday': '09:00 - 23:00', 'Thursday': '09:00 - 23:00', 'Friday': '09:00 - 00:00', 'Saturday': '09:00 - 00:00', 'Sunday': '09:00 - 23:00'}",https://www.happycow.net/reviews/mistura-madrid-204433
125,Coco Bar ,"C/ Espíritu Santo 36,Madrid,Spain,28004",40.425586,-3.704797,0,0,"['International', 'Fusion', 'Spanish']",6,Barato,+34-915217342,No website,No instagram,http://facebook.com/cocobarmad/,"{'Monday': '18:30 - 01:00', 'Tuesday': '18:30 - 01:00', 'Wednesday': 'Closed', 'Thursday': '13:00 - 01:00', 'Friday': '13:00 - 01:00', 'Saturday': '13:00 - 01:00', 'Sunday': 'Closed'}",https://www.happycow.net/reviews/coco-bar-madrid-216798
126,O Cacho do Jose,"Plaza de Santa Ana, 1,Madrid,Spain,28012",40.414998,-3.701184,1,3.0,"['Italian', 'Mediterranean', 'Spanish']",0,Moderado,+34-915210984,https://ocachodojose.com/,No instagram,No facebook,"{'Monday': '09:30 - 01:00', 'Tuesday': '09:30 - 01:00', 'Wednesday': '09:30 - 01:00', 'Thursday': '09:30 - 01:00', 'Friday': '09:30 - 01:00', 'Saturday': '09:30 - 01:00', 'Sunday': '09:30 - 01:00'}",https://www.happycow.net/reviews/o-cacho-do-jose-madrid-405805
127,Araldo,"Calle de los Madrazo, 5 (at Paseo del Prado),Madrid,Spain,28014",40.417597,-3.698066,3,3.5,['Italian'],5,Moderado,+34-911384165,http://www.araldoartedelgusto.es/,No instagram,http://facebook.com/AraldoArtedelGustoMadrid,"{'Monday': '13:00 - 16:30, 20:00 - 00:00', 'Tuesday': '13:00 - 16:30, 20:00 - 00:00', 'Wednesday': '13:00 - 16:30, 20:00 - 00:00', 'Thursday': '13:00 - 16:30, 20:00 - 00:00', 'Friday': '13:00 - 16:30, 20:00 - 00:30', 'Saturday': '13:00 - 16:30, 20:00 - 00:30', 'Sunday': 'Closed'}",https://www.happycow.net/reviews/araldo-madrid-154107
128,Delish Vegan Doughnuts - Malasaña,"Corredera alta de San Pablo, 12,Madrid,Spain,28004",40.425181,-3.701897,70,4.5,[],112,No price range,No phone number,http://delishvegan.com/,http://www.instagram.com/delishvegandoughnuts,http://facebook.com/delishvegan,"{'Monday': '10:30 - 21:00', 'Tuesday': '10:30 - 21:00', 'Wednesday': '10:30 - 21:00', 'Thursday': '10:30 - 21:00', 'Friday': '10:30 - 21:00', 'Saturday': '10:30 - 21:30', 'Sunday': '10:30 - 21:30'}",https://www.happycow.net/reviews/delish-vegan-doughnuts-madrid-245887
129,Toto Ice Cream & Coffee,"Corredera Alta de San Pablo, 12,Madrid,Spain,28004",40.425181,-3.701897,4,4.0,[],14,No price range,+34-627822842,http://totoicecream.com/,No instagram,http://facebook.com/totoicecream.spain,"{'Monday': '10:00 - 00:00', 'Tuesday': '10:00 - 00:00', 'Wednesday': '10:00 - 00:00', 'Thursday': '10:00 - 00:00', 'Friday': '10:00 - 01:00', 'Saturday': '10:00 - 01:00', 'Sunday': '10:00 - 00:00'}",https://www.happycow.net/reviews/toto-ice-cream-and-coffee-madrid-203544
130,Faborit - Shibuya,"Plaza de España 2,Madrid,Spain,28008",40.422971,-3.711219,2,2.5,['European'],3,No price range,+34-915476359,https://www.faborit.com/,http://www.instagram.com/faborit,http://facebook.com/faboritcoffee,"{'Monday': '08:00 - 22:00', 'Tuesday': '08:00 - 22:00', 'Wednesday': '08:00 - 22:00', 'Thursday': '08:00 - 22:00', 'Friday': '08:00 - 22:00', 'Saturday': '08:00 - 22:00', 'Sunday': '08:00 - 22:00'}",https://www.happycow.net/reviews/faborit-shibuya-madrid-333445
131,Macayaki,"C de Augusto Figueroa, 22, Centro,Madrid,Spain,28004",40.422135,-3.697923,1,4.0,"['Japanese', 'European', 'Fusion']",0,No price range,+34-911479067,No website,http://www.instagram.com/macayaki_,No facebook,"{'Monday': 'Closed', 'Tuesday': '11:00 - 21:30', 'Wednesday': '11:00 - 21:30', 'Thursday': '11:00 - 23:00', 'Friday': '11:00 - 23:00', 'Saturday': '11:00 - 23:00', 'Sunday': '11:00 - 21:30'}",https://www.happycow.net/reviews/macayaki-madrid-405259
132,Almalibre Açaí House,"Calle de la Libertad, 17,Madrid,Spain,28004",40.421137,-3.697448,22,4.5,"['American', 'Mediterranean', 'Fusion', 'Brazilian']",64,Moderado,+34-911633596,https://www.almalibreacaihouse.com/madrid,No instagram,http://facebook.com/almalibreacaihouse,"{'Monday': '09:30 - 19:30', 'Tuesday': '09:30 - 19:30', 'Wednesday': '09:30 - 19:30', 'Thursday': '09:30 - 19:30', 'Friday': '09:30 - 19:30', 'Saturday': '09:30 - 19:30', 'Sunday': '09:30 - 16:00'}",https://www.happycow.net/reviews/almalibre-acai-house-madrid-207473
133,Aloha Poke - Chueca,"Calle de la Libertad, 17,Madrid,Spain,28004",40.421137,-3.697448,3,2.5,['Asian'],3,Moderado,+34-910005099,http://www.alohapoke.es/,http://www.instagram.com/alohapokespain,http://facebook.com/AlohaPokeSpain,"{'Monday': '11:30 - 23:00', 'Tuesday': '11:30 - 23:00', 'Wednesday': '11:30 - 23:00', 'Thursday': '11:30 - 23:00', 'Friday': '11:30 - 23:00', 'Saturday': '11:30 - 23:00', 'Sunday': '11:30 - 23:00'}",https://www.happycow.net/reviews/aloha-poke-madrid-228280
