id,Name,Address,Lat,Long,Number of Ratings,Restaurant Rating,Type of Restaurant,Number of Bookmarks,Price Range,Phone Number,Website,Instagram,Facebook,Timetable,url,Total Work Hours,Days Open,Average Daily Hours,Total Social Media,Has Social Media,Popularity
1,Freedom Cakes Diner,"Calle Cádiz 7,Madrid,Spain,28004",40.415876,-3.702805,470.0,4.5,['International'],766,2,+34-910741347,1,1,1,"{'Monday': '08:00 - 00:00', 'Tuesday': '08:00 - 00:00', 'Wednesday': '08:00 - 00:00', 'Thursday': '08:00 - 00:00', 'Friday': '08:00 - 00:30', 'Saturday': '08:00 - 00:30', 'Sunday': '08:00 - 00:00'}",https://www.happycow.net/reviews/freedom-cakes-diner-madrid-101451,113.0,7.0,16.14,3,1,0.8753939595948373
2,Mad Mad Vegan - Chueca,"Calle Pelayo 19,Madrid,Spain,28004",40.422698,-3.698609,410.0,5.0,"['American', 'Mexican']",612,2,+34-914442077,1,1,1,"{'Monday': '13:00 - 00:00', 'Tuesday': '13:00 - 00:00', 'Wednesday': '13:00 - 00:00', 'Thursday': '13:00 - 00:00', 'Friday': '13:00 - 00:00', 'Saturday': '13:00 - 00:00', 'Sunday': '13:00 - 00:00'}",https://www.happycow.net/reviews/mad-mad-madrid-154608,77.0,7.0,11.0,3,1,0.7166816658333796
3,Frutas Prohibidas,"Calle del Conde Duque, 26,Madrid,Spain,28015",40.427467,-3.710349,241.0,5.0,"['International', 'Fusion']",555,2,+34-911525533,1,1,1,"{'Monday': 'Closed', 'Tuesday': 'Closed', 'Wednesday': '10:00 - 18:00', 'Thursday': '10:00 - 18:00', 'Friday': '10:00 - 18:00', 'Saturday': '10:00 - 18:00', 'Sunday': '10:00 - 18:00'}",https://www.happycow.net/reviews/frutas-prohibidas-madrid-187623,40.0,5.0,5.71,3,1,0.6519063755717275
4,Mad Mad Vegan - Lavapiés,"Lavapiés 16,Madrid,Spain,28012",40.411113,-3.703039,216.0,4.5,"['American', 'Mexican']",465,2,+34-910665299,1,1,1,"{'Monday': '13:00 - 00:00', 'Tuesday': '13:00 - 00:00', 'Wednesday': '13:00 - 00:00', 'Thursday': '13:00 - 00:00', 'Friday': '13:00 - 00:00', 'Saturday': '13:00 - 00:00', 'Sunday': '13:00 - 00:00'}",https://www.happycow.net/reviews/mad-mad-vegan-madrid-232175,77.0,7.0,11.0,3,1,0.3375197674203285
5,Flower Burger," Calle Luchana 13, Chamberí,Madrid,Spain,28010",40.430001,-3.701037,14.0,4.5,"['American', 'Western']",47,1,+34-910328968,1,1,1,"{'Monday': '13:00 - 16:30, 19:30 - 23:30', 'Tuesday': '13:00 - 16:30, 19:30 - 23:30', 'Wednesday': '13:00 - 16:30, 19:30 - 23:30', 'Thursday': '13:00 - 16:30, 19:30 - 23:30', 'Friday': '13:00 - 00:00', 'Saturday': '13:00 - 00:00', 'Sunday': '13:00 - 23:30'}",https://www.happycow.net/reviews/flower-burger-madrid-409399,62.5,7.0,8.93,3,1,0.6024591226413347
6,Viva Chapata,"Calle del Ave Maria 43,Madrid,Spain,28012",40.409423,-3.700885,176.0,4.5,"['Western', 'Spanish']",406,2,+34-915301093,1,1,1,"{'Monday': 'Closed', 'Tuesday': '10:00 - 00:00', 'Wednesday': '10:00 - 00:00', 'Thursday': '10:00 - 00:00', 'Friday': '10:00 - 00:30', 'Saturday': '11:30 - 00:30', 'Sunday': '11:30 - 00:30'}",https://www.happycow.net/reviews/viva-chapata-madrid-34396,82.5,6.0,11.79,3,1,0.7677721608058812
7,La Oveja Negra,"C/ Buenavista, 42, Lavapiés,Madrid,Spain,28012",40.409241,-3.699736,296.0,4.5,['Western'],648,2,+34-665857363,1,1,1,"{'Monday': '13:00 - 17:00', 'Tuesday': '13:00 - 00:00', 'Wednesday': '13:00 - 00:00', 'Thursday': '13:00 - 00:00', 'Friday': '13:00 - 00:00', 'Saturday': '13:00 - 00:00', 'Sunday': '13:00 - 17:00'}",https://www.happycow.net/reviews/la-oveja-negra-madrid-32567,63.0,7.0,9.0,3,1,0.8671333074088476
8,VEGA - Luna,"Luna 9 (at Malasana District),Madrid,Spain,28004",40.422335,-3.706148,406.0,4.5,"['International', 'Mediterranean', 'Fusion', 'Spanish']",670,2,+34-910704969,1,1,1,"{'Monday': 'Closed', 'Tuesday': '13:00 - 23:00', 'Wednesday': '13:00 - 23:00', 'Thursday': '13:00 - 23:00', 'Friday': '13:00 - 23:00', 'Saturday': '13:00 - 23:30', 'Sunday': '13:00 - 17:00'}",https://www.happycow.net/reviews/vega-madrid-54785,54.5,6.0,7.79,3,1,0.23457733829602062
9,Celicioso Callao,"Plaza del Callao, 2, 9º Planta,Madrid,Spain,28013",40.419516,-3.704929,5.0,4.0,[],14,0,+34-915312594,1,0,1,"{'Monday': '10:00 - 22:00', 'Tuesday': '10:00 - 22:00', 'Wednesday': '10:00 - 22:00', 'Thursday': '10:00 - 22:00', 'Friday': '10:00 - 22:00', 'Saturday': '10:00 - 22:00', 'Sunday': '10:00 - 22:00'}",https://www.happycow.net/reviews/celicioso-callao-madrid-204536,84.0,7.0,12.0,2,1,0.4452826694813251
10,Shi-Shang,"3 Calle de Concepcion Arenal,Madrid,Spain,28004",40.42071,-3.704862,127.0,4.0,['Chinese'],168,2,+34-915231220,1,0,1,"{'Monday': 'Closed', 'Tuesday': 'Closed', 'Wednesday': '12:30 - 16:30, 19:30 - 00:00', 'Thursday': '12:30 - 16:30, 19:30 - 00:00', 'Friday': '12:30 - 16:30, 19:30 - 00:00', 'Saturday': '12:30 - 16:30, 19:30 - 00:00', 'Sunday': '12:30 - 16:30, 19:30 - 00:00'}",https://www.happycow.net/reviews/shi-shang-madrid-12240,42.5,5.0,6.07,2,1,0.13333333333333333
11,Kiraku,"Calle de Miguel Moya 6,Madrid,Spain,28004",40.42086,-3.705487,0.0,0.0,"['Japanese', 'Asian']",0,2,+34-915227574,1,1,0,"{'Monday': 'Closed', 'Tuesday': '17:30 - 22:00', 'Wednesday': '17:30 - 22:00', 'Thursday': '17:30 - 22:00', 'Friday': '17:30 - 23:00', 'Saturday': '17:30 - 23:00', 'Sunday': 'Closed'}",https://www.happycow.net/reviews/kiraku-madrid-405914,24.5,5.0,3.5,2,1,0.19496768698035297
12,GEISHA ,"C. de las Navas de Tolosa, 6,Madrid,Spain,28013",40.419258,-3.706581,1.0,4.0,[],3,0,+34-614177950,0,1,0,"{'Monday': '09:00 - 18:00', 'Tuesday': '09:00 - 18:00', 'Wednesday': '09:00 - 18:00', 'Thursday': '09:00 - 19:00', 'Friday': '09:00 - 20:00', 'Saturday': '09:00 - 20:00', 'Sunday': '09:00 - 20:00'}",https://www.happycow.net/reviews/geisha-madrid-408421,70.0,7.0,10.0,1,1,0.23254263652019336
13,Xiongzai II,"Calle de la Salud, 8,Madrid,Spain,28013",40.419475,-3.702994,4.0,3.0,"['Chinese', 'Asian']",35,2,+34-910749665,1,0,0,"{'Monday': 'Closed', 'Tuesday': '12:30 - 17:00, 18:30 - 23:00', 'Wednesday': '12:30 - 17:00, 18:30 - 23:00', 'Thursday': '12:30 - 17:00, 18:30 - 23:00', 'Friday': '12:30 - 17:00, 18:30 - 23:00', 'Saturday': '12:30 - 17:00, 18:30 - 23:00', 'Sunday': '12:30 - 17:00, 18:30 - 23:00'}",https://www.happycow.net/reviews/xiongzai-ii-madrid-258675,54.0,6.0,7.71,1,1,0.2701312890024628
14,Naked and Sated - Maestro Victoria,"C. del Maestro Victoria, 5,Madrid,Spain,28013",40.418445,-3.705356,9.0,3.0,"['International', 'Mediterranean', 'Fusion', 'Spanish']",35,2,+34-914442277,1,0,1,"{'Monday': '13:00 - 00:00', 'Tuesday': '13:00 - 00:00', 'Wednesday': '13:00 - 00:00', 'Thursday': '13:00 - 00:00', 'Friday': '13:00 - 00:00', 'Saturday': '11:00 - 00:00', 'Sunday': '11:00 - 23:30'}",https://www.happycow.net/reviews/naked-and-sated-madrid-251540,80.5,7.0,11.5,2,1,0.32751773049645394
15,Tropicalista GastroBar,"C. de la Ballesta, 2,Madrid,Spain,28004",40.421114,-3.703581,1.0,4.0,['Brazilian'],0,2,+34-915233185,1,1,1,"{'Monday': '19:30 - 00:30', 'Tuesday': '19:30 - 00:30', 'Wednesday': '19:30 - 00:30', 'Thursday': '19:30 - 00:30', 'Friday': '13:30 - 17:30, 19:30 - 01:00', 'Saturday': '13:30 - 01:00', 'Sunday': '14:00 - 00:00'}",https://www.happycow.net/reviews/tropicalista-gastrobar-madrid-409065,51.0,7.0,7.29,3,1,0.2818428605818195
16,AbonaVida,"Calle Navas de Tolosa 3,Madrid,Spain",40.41915,-3.706617,20.0,3.0,['Mediterranean'],44,2,+34-915229860,1,0,1,"{'Monday': '09:00 - 02:00', 'Tuesday': '09:00 - 02:00', 'Wednesday': '09:00 - 02:00', 'Thursday': '09:00 - 02:00', 'Friday': '09:00 - 02:00', 'Saturday': '13:00 - 02:00', 'Sunday': '13:00 - 02:00'}",https://www.happycow.net/reviews/abonavida-madrid-58755,111.0,7.0,15.86,2,1,0.2796096513156676
17,Lopez and Lopez - Malasana,"C de Loreto y Chicote, 3,Madrid,Spain,28004",40.421348,-3.703752,4.0,3.5,"['International', 'Italian']",11,2,+34-910442022,1,0,1,"{'Monday': '20:00 - 00:30', 'Tuesday': '20:00 - 00:30', 'Wednesday': '13:30 - 17:00, 20:00 - 00:30', 'Thursday': '13:30 - 17:00, 20:00 - 00:30', 'Friday': '13:30 - 17:00, 20:00 - 01:30', 'Saturday': '13:30 - 17:00, 20:00 - 01:30', 'Sunday': '13:30 - 17:00, 20:00 - 00:30'}",https://www.happycow.net/reviews/lopez-and-lopez-madrid-265273,51.0,7.0,7.29,2,1,0.3504301612873359
18,Artemisa Sol,"Calle Tres Cruces 4, Gran Via,Madrid,Spain,28013",40.419263,-3.702862,45.0,4.0,['Spanish'],72,2,+34-915218721,1,0,1,"{'Monday': '13:30 - 16:00, 20:00 - 23:00', 'Tuesday': '13:30 - 16:00', 'Wednesday': '13:30 - 16:00', 'Thursday': '13:30 - 16:00', 'Friday': '13:30 - 16:00, 20:00 - 23:00', 'Saturday': '13:30 - 16:00, 20:00 - 23:00', 'Sunday': '13:30 - 16:00, 20:00 - 23:00'}",https://www.happycow.net/reviews/artemisa-sol-madrid-34403,29.5,7.0,4.21,2,1,0.32803992370794216
19,Lamucca del Carmen,"Plaza del Carmen, 5,Madrid,Spain,28013",40.418998,-3.7029,1.0,4.0,"['American', 'Mediterranean']",2,2,+34-915210000,1,1,1,"{'Monday': '10:00 - 01:30', 'Tuesday': '10:00 - 01:30', 'Wednesday': '10:00 - 01:30', 'Thursday': '10:00 - 02:00', 'Friday': '10:00 - 02:30', 'Saturday': '10:00 - 02:30', 'Sunday': '10:00 - 01:30'}",https://www.happycow.net/reviews/lamucca-del-carmen-madrid-376382,111.0,7.0,15.86,3,1,0.2845127122567265
20,Pans & Company - Gran Vía,"Calle Gran Vía, 30,Madrid,Spain,28013",40.420227,-3.702465,7.0,3.5,"['Mediterranean', 'Spanish']",20,1,+34-915326510,1,1,1,"{'Monday': '10:00 - 23:00', 'Tuesday': '10:00 - 23:00', 'Wednesday': '10:00 - 23:00', 'Thursday': '10:00 - 23:00', 'Friday': '10:00 - 00:00', 'Saturday': '10:00 - 00:00', 'Sunday': '10:00 - 23:00'}",https://www.happycow.net/reviews/pans-and-company-madrid-190217,93.0,7.0,13.29,3,1,0.10156657963446475
21,El Ideal Bar,"Calle Estrella, 3,Madrid,Spain,28004",40.421919,-3.70603,0.0,0.0,['Spanish'],6,1,+34-651829373,0,1,1,"{'Monday': 'Closed', 'Tuesday': '19:00 - 02:00', 'Wednesday': '19:00 - 02:00', 'Thursday': '19:00 - 02:00', 'Friday': '19:00 - 02:30', 'Saturday': '19:00 - 02:30', 'Sunday': 'Closed'}",https://www.happycow.net/reviews/el-ideal-bar-madrid-109777,36.0,5.0,5.14,2,1,0.17888413606651482
22,Jardín Secreto,"37 Calle de la Montera,Madrid,Spain,28013",40.419075,-3.702206,1.0,1.0,"['European', 'Spanish']",18,3,+34-915311251,1,0,0,"{'Monday': '11:00 - 00:00', 'Tuesday': '11:00 - 00:00', 'Wednesday': '11:00 - 00:00', 'Thursday': '11:00 - 01:00', 'Friday': '11:00 - 01:00', 'Saturday': '11:00 - 01:00', 'Sunday': '11:00 - 00:00'}",https://www.happycow.net/reviews/jardin-secreto-madrid-287468,94.0,7.0,13.43,1,1,0.6082136177619762
23,B13 Bar,"Calle de la Ballesta 13,Madrid,Spain,28004",40.421924,-3.703419,302.0,4.5,"['Western', 'Spanish']",528,1,+34-911704435,0,0,0,"{'Monday': 'Closed', 'Tuesday': 'Closed', 'Wednesday': '13:30 - 16:30, 20:00 - 23:00', 'Thursday': '13:30 - 16:30, 20:00 - 23:00', 'Friday': '13:30 - 16:30, 20:00 - 00:00', 'Saturday': '13:30 - 16:30, 20:00 - 00:00', 'Sunday': '13:30 - 16:30, 20:00 - 23:00'}",https://www.happycow.net/reviews/b13-bar-madrid-34434,32.0,5.0,4.57,0,0,0.2608510638297873
24,Brunch Club ,"C. del Barco, 15,Madrid,Spain,28004",40.4216,-3.702822,1.0,4.0,['Western'],0,0,+34-910461934,1,1,1,"{'Monday': '09:30 - 16:30', 'Tuesday': '09:30 - 16:30', 'Wednesday': '09:30 - 16:30', 'Thursday': '09:30 - 16:30', 'Friday': '09:30 - 16:30', 'Saturday': '09:30 - 16:30', 'Sunday': '09:30 - 16:30'}",https://www.happycow.net/reviews/brunch-club-madrid-409688,49.0,7.0,7.0,3,1,0.29418439716312056
25,Chila - 湘遇,"Calle de Silva, 4,Madrid,Spain,28013",40.420631,-3.707712,1.0,4.0,"['Chinese', 'Asian']",0,2,+34-690252451,1,1,0,"{'Monday': '12:00 - 23:00', 'Tuesday': '12:00 - 23:00', 'Wednesday': '12:00 - 23:00', 'Thursday': '12:00 - 23:00', 'Friday': '12:00 - 23:00', 'Saturday': '12:00 - 23:00', 'Sunday': '12:00 - 23:00'}",https://www.happycow.net/reviews/chila-madrid-422020,77.0,7.0,11.0,2,1,0.26411977112382645
26,Burnout - Valverde,"6 Calle de Valverde,Madrid,Spain,28004",40.420808,-3.702088,3.0,4.0,"['American', 'Western']",6,2,+34-915991085,1,0,0,"{'Monday': '13:00 - 16:30, 20:00 - 23:30', 'Tuesday': '13:00 - 16:30, 20:00 - 23:30', 'Wednesday': '13:00 - 16:30, 20:00 - 23:30', 'Thursday': '13:00 - 16:30', 'Friday': '13:00 - 17:00', 'Saturday': '13:00 - 17:00', 'Sunday': '13:00 - 17:00, 20:00 - 23:30'}",https://www.happycow.net/reviews/burnout-madrid-259614,40.0,7.0,5.71,1,1,0.2599411143825343
27,Lemongrass,"36, Calle Montera,Madrid,Spain,28013",40.419182,-3.701816,13.0,3.5,"['Thai', 'Asian']",34,1,+34-915224738,1,0,1,"{'Monday': '12:00 - 00:00', 'Tuesday': '12:00 - 00:00', 'Wednesday': '12:00 - 00:00', 'Thursday': '12:00 - 00:00', 'Friday': '12:00 - 00:00', 'Saturday': '12:00 - 00:00', 'Sunday': '12:00 - 00:00'}",https://www.happycow.net/reviews/lemongrass-madrid-60248,84.0,7.0,12.0,2,1,0.46394459567061086
28,La Huerta Funky Castizo,"C de las Conchas, 8,Madrid,Spain,28013",40.418956,-3.708069,60.0,5.0,"['Italian', 'European', 'Fusion']",177,2,+34-917003596,1,1,1,"{'Monday': '17:00 - 02:00', 'Tuesday': '17:00 - 02:00', 'Wednesday': '12:00 - 02:00', 'Thursday': '12:00 - 02:00', 'Friday': '12:00 - 02:30', 'Saturday': '12:00 - 02:30', 'Sunday': '12:00 - 02:00'}",https://www.happycow.net/reviews/la-huerta-funky-castizo-madrid-356550,89.0,7.0,12.71,3,1,0.26025739310779034
29,Amargo Place To Be,"2 Calle del Pez,Madrid,Spain,28004",40.422686,-3.70372,2.0,3.0,"['International', 'Western', 'Spanish']",20,2,+34-910847990,1,0,1,"{'Monday': '10:00 - 23:00', 'Tuesday': '10:00 - 23:00', 'Wednesday': '10:00 - 23:00', 'Thursday': '10:00 - 23:00', 'Friday': '10:00 - 23:00', 'Saturday': '10:00 - 23:00', 'Sunday': '10:00 - 23:00'}",https://www.happycow.net/reviews/amargo-place-to-be-madrid-239392,91.0,7.0,13.0,2,1,0.24906431124196804
30,Celicioso - Hortaleza,"Calle Hortaleza, 3,Madrid,Spain",40.420354,-3.701102,40.0,3.5,"['Mediterranean', 'European', 'Spanish']",32,0,+34-915318887,1,0,1,"{'Monday': '09:00 - 21:30', 'Tuesday': '09:00 - 21:30', 'Wednesday': '09:00 - 21:30', 'Thursday': '09:00 - 21:30', 'Friday': '09:00 - 21:30', 'Saturday': '09:00 - 21:30', 'Sunday': '09:00 - 21:30'}",https://www.happycow.net/reviews/celicioso-madrid-68327,87.5,7.0,12.5,2,1,0.2323530174249579
31,Casa Jaguar,"Calle de los Canos del Peral, 9,Madrid,Spain,28013",40.419105,-3.708648,3.0,4.0,"['Mexican', 'Latin']",12,2,+34-910245712,0,0,0,"{'Monday': 'Closed', 'Tuesday': '18:00 - 00:00', 'Wednesday': '13:00 - 17:00', 'Thursday': 'Closed', 'Friday': 'Closed', 'Saturday': 'Closed', 'Sunday': 'Closed'}",https://www.happycow.net/reviews/casa-jaguar-madrid-91345,10.0,2.0,1.43,0,0,0.2336647964002
32,Wok to Walk - Hortaleza,"C/ Hortaleza, 7,Madrid,Spain,28004",40.420616,-3.700888,9.0,3.0,"['Chinese', 'Asian']",23,1,No phone number,1,0,1,"{'Monday': '12:00 - 00:00', 'Tuesday': '12:00 - 00:00', 'Wednesday': '12:00 - 00:00', 'Thursday': '12:00 - 00:00', 'Friday': '12:00 - 02:00', 'Saturday': '12:00 - 02:00', 'Sunday': '12:00 - 00:00'}",https://www.happycow.net/reviews/wok-to-walk-madrid-57755,88.0,7.0,12.57,2,1,0.23111160491083832
33,Dokdo Korea,"Calle de los Caños del Peral, 5,Madrid,Spain,28013",40.418861,-3.708807,6.0,3.0,"['Asian', 'Korean']",23,2,+34-910446237,0,0,1,"{'Monday': '09:00 - 21:00', 'Tuesday': '09:00 - 21:00', 'Wednesday': '09:00 - 21:00', 'Thursday': '09:00 - 21:00', 'Friday': '09:00 - 21:00', 'Saturday': '09:00 - 21:00', 'Sunday': '09:00 - 21:00'}",https://www.happycow.net/reviews/dokdo-korea-madrid-211039,84.0,7.0,12.0,1,1,0.25222376534636964
34,Wok to Walk - Calle Mayor,"Calle Mayor, 4,Madrid,Spain,28013",40.416717,-3.705068,7.0,3.5,"['Chinese', 'Asian']",24,1,No phone number,1,0,1,"{'Monday': '12:00 - 01:00', 'Tuesday': '12:00 - 01:00', 'Wednesday': '12:00 - 01:00', 'Thursday': '12:00 - 01:00', 'Friday': '12:00 - 02:00', 'Saturday': '12:00 - 02:00', 'Sunday': '12:00 - 01:00'}",https://www.happycow.net/reviews/wok-to-walk-madrid-138240,93.0,7.0,13.29,2,1,0.2699353739607059
35,The Veggie Point,"Various locations throughout Spain (at Based in Madrid.),Madrid,Spain,28021",40.416775,-3.70379,2.0,5.0,[],6,0,+34-636803919,1,1,0,Closed,https://www.happycow.net/reviews/the-veggie-point-madrid-383874,0.0,0.0,0.0,2,1,0.33548988019184117
36,The Treehouse by Superchulo,"C Gran Vía, 55,Madrid,Spain,28013",40.42155,-3.708629,1.0,5.0,"['Western', 'Mediterranean', 'Spanish']",5,2,+34-911087670,1,0,1,"{'Monday': '09:00 - 20:00', 'Tuesday': '09:00 - 20:00', 'Wednesday': '09:00 - 20:00', 'Thursday': '09:00 - 20:00', 'Friday': '09:00 - 20:00', 'Saturday': '09:00 - 20:00', 'Sunday': '09:00 - 20:00'}",https://www.happycow.net/reviews/the-treehouse-by-superchulo-madrid-402145,77.0,7.0,11.0,2,1,0.31418069366516677
37,Grosso Napoletano - Malasaña,"11 Calle del Pez,Madrid,Spain,28004",40.423372,-3.7051,3.0,3.5,['Italian'],19,2,+34-910053691,1,1,1,"{'Monday': '13:00 - 23:00', 'Tuesday': '13:00 - 23:00', 'Wednesday': '13:00 - 23:00', 'Thursday': '13:00 - 23:00', 'Friday': '13:00 - 00:00', 'Saturday': '13:00 - 00:00', 'Sunday': '13:00 - 23:30'}",https://www.happycow.net/reviews/grosso-napoletano-madrid-306836,72.5,7.0,10.36,3,1,0.3048504712701146
38,Zenith Brunch & Cocktails,"Calle de Valverde, 28,Madrid,Spain,28004",40.422366,-3.701621,22.0,3.5,"['European', 'Fusion']",49,2,+34-912124299,1,0,1,"{'Monday': '09:00 - 18:00', 'Tuesday': '09:00 - 18:00', 'Wednesday': '09:00 - 18:00', 'Thursday': '09:00 - 18:00', 'Friday': '09:00 - 18:00', 'Saturday': '09:00 - 18:00', 'Sunday': '09:00 - 18:00'}",https://www.happycow.net/reviews/zenith-brunch-cocktails-madrid-266834,63.0,7.0,9.0,2,1,0.2555576542043961
39,Lamucca de Pez,"Pl. de Carlos Cambronero 4,Madrid,Spain,28004",40.423332,-3.703871,2.0,3.0,"['American', 'International', 'Mediterranean', 'Spanish']",2,2,+34-915210000,1,0,1,"{'Monday': '13:00 - 01:30', 'Tuesday': '13:00 - 01:30', 'Wednesday': '13:00 - 01:30', 'Thursday': '13:00 - 02:00', 'Friday': '13:00 - 02:30', 'Saturday': '10:00 - 02:30', 'Sunday': '10:00 - 01:30'}",https://www.happycow.net/reviews/lamucca-de-pez-madrid-298291,96.0,7.0,13.71,2,1,0.13881636205395997
40,Viena Capellanes,"C de Bordadores, 9,Madrid,Spain,28013",40.416965,-3.707394,0.0,0.0,"['International', 'Spanish']",21,1,+34-915595397,1,1,1,"{'Monday': '08:00 - 21:00', 'Tuesday': '08:00 - 21:00', 'Wednesday': '08:00 - 21:00', 'Thursday': '08:00 - 21:00', 'Friday': '08:00 - 21:30', 'Saturday': '09:00 - 21:30', 'Sunday': '09:00 - 21:30'}",https://www.happycow.net/reviews/viena-capellanes-madrid-287976,90.5,7.0,12.93,3,1,0.5509553172971873
41,Sanissimo - Opera,"Calle Campomanes 5,Madrid,Spain,28013",40.419001,-3.709383,175.0,4.5,"['Western', 'Spanish']",212,2,+34-911152546,1,1,1,"{'Monday': '13:00 - 23:30', 'Tuesday': '13:00 - 23:30', 'Wednesday': '13:00 - 23:30', 'Thursday': '13:00 - 23:30', 'Friday': '13:00 - 00:00', 'Saturday': '12:00 - 00:00', 'Sunday': '12:00 - 23:30'}",https://www.happycow.net/reviews/sanissimo-opera-madrid-73747,76.5,7.0,10.93,3,1,0.32264763068718405
42,La Huerta de Almeria - Malasaña,"Calle Corredera Baja de San Pablo 47,Madrid,Spain",40.423231,-3.702921,46.0,4.0,['International'],90,1,+34-912799254,1,0,1,"{'Monday': '09:00 - 00:00', 'Tuesday': '09:00 - 00:00', 'Wednesday': '09:00 - 00:00', 'Thursday': '09:00 - 00:00', 'Friday': '09:00 - 00:00', 'Saturday': '09:00 - 00:00', 'Sunday': '09:00 - 00:00'}",https://www.happycow.net/reviews/la-huerta-de-almeria-madrid-81172,105.0,7.0,15.0,2,1,0.24980612188211765
43,Tierra Burrito Bar - Opera,"Plaza de Isabel II, 5,Madrid,Spain,28013",40.418584,-3.709382,6.0,3.5,"['American', 'Mexican']",18,1,+34-912220476,1,0,1,"{'Monday': '12:00 - 00:30', 'Tuesday': '12:00 - 00:30', 'Wednesday': '12:00 - 00:30', 'Thursday': '12:00 - 00:30', 'Friday': '12:00 - 00:30', 'Saturday': '12:00 - 00:30', 'Sunday': '12:00 - 00:30'}",https://www.happycow.net/reviews/tierra-burrito-bar-madrid-222943,87.5,7.0,12.5,2,1,0.24575412477084607
44,Fresc Co,"Calle de las Fuentes 12,Madrid,Spain",40.41749,-3.708548,4.0,3.5,"['Western', 'European', 'Spanish']",9,2,No phone number,1,0,0,"{'Monday': '12:00 - 23:30', 'Tuesday': '12:00 - 23:30', 'Wednesday': '12:00 - 23:30', 'Thursday': '12:00 - 23:30', 'Friday': '12:00 - 23:30', 'Saturday': '12:00 - 23:30', 'Sunday': '12:00 - 23:30'}",https://www.happycow.net/reviews/fresc-co-madrid-74989,80.5,7.0,11.5,1,1,0.2033364813065941
45,The Cookie Lab,"Calle del Pez, 16,Madrid,Spain,28004",40.423665,-3.705132,3.0,2.5,['American'],3,0,+34-910850640,1,1,1,"{'Monday': '15:00 - 21:00', 'Tuesday': '09:30 - 21:00', 'Wednesday': '09:30 - 21:00', 'Thursday': '09:30 - 21:00', 'Friday': '09:30 - 21:00', 'Saturday': '10:00 - 21:30', 'Sunday': '10:30 - 21:00'}",https://www.happycow.net/reviews/the-cookie-lab-madrid-315428,74.0,7.0,10.57,3,1,0.33843601281410296
46,Ramen Shifu - Chueca,"Infantas 14 (at Plaza Pedro Zerolo),Madrid,Spain,28004",40.420759,-3.700001,8.0,4.0,"['Japanese', 'Asian']",19,2,+34-919202729,1,1,1,"{'Monday': '13:00 - 16:00, 20:00 - 23:00', 'Tuesday': '13:00 - 16:00, 20:00 - 23:00', 'Wednesday': '13:00 - 16:00, 20:00 - 23:00', 'Thursday': '13:00 - 16:00, 20:00 - 23:00', 'Friday': '13:00 - 16:00, 20:00 - 23:00', 'Saturday': '13:00 - 16:00, 20:00 - 23:00', 'Sunday': '13:00 - 16:00, 20:00 - 23:00'}",https://www.happycow.net/reviews/ramen-shifu-madrid-223352,42.0,7.0,6.0,3,1,0.3362794659555951
47,Ramen Shifu  - Plaza España,"C de Isabel la Católica, 15,Madrid,Spain,28013",40.421566,-3.709382,7.0,4.0,"['Japanese', 'Asian']",14,2,+34-911448402,1,1,1,"{'Monday': 'Closed', 'Tuesday': '13:00 - 16:30, 20:00 - 23:30', 'Wednesday': '13:00 - 16:30, 20:00 - 23:30', 'Thursday': '13:00 - 16:30, 20:00 - 23:30', 'Friday': '13:00 - 16:30, 20:00 - 00:00', 'Saturday': '13:00 - 16:30, 20:00 - 00:00', 'Sunday': '13:00 - 16:30, 20:00 - 00:00'}",https://www.happycow.net/reviews/ramen-shifu-madrid-259110,43.5,6.0,6.21,3,1,0.19837823824602338
48,La Rollerie - Mayor,"Calle Mayor 24,Madrid,Spain",40.416447,-3.707221,11.0,3.0,['Spanish'],9,1,+34-917569271,1,0,0,"{'Monday': '18:00 - 02:00', 'Tuesday': '18:00 - 02:00', 'Wednesday': '18:00 - 02:00', 'Thursday': '18:00 - 02:00', 'Friday': '18:00 - 02:00', 'Saturday': '18:00 - 02:00', 'Sunday': '18:00 - 02:00'}",https://www.happycow.net/reviews/la-rollerie-madrid-86547,56.0,7.0,8.0,1,1,0.1
49,Taquería Mi Ciudad,"Calle de las Hileras 5,Madrid,Spain,28013",40.416958,-3.708387,0.0,0.0,['Mexican'],0,1,+34-915598711,1,1,0,"{'Monday': '13:30 - 16:30, 20:00 - 00:30', 'Tuesday': '13:30 - 16:30, 20:00 - 00:30', 'Wednesday': '13:30 - 16:30, 20:00 - 00:00', 'Thursday': '13:30 - 16:30, 20:00 - 00:30', 'Friday': '13:30 - 16:30, 20:00 - 00:30', 'Saturday': '13:30 - 16:30, 20:00 - 00:30', 'Sunday': '13:30 - 16:30, 20:00 - 00:00'}",https://www.happycow.net/reviews/taqueria-mi-ciudad-madrid-415118,51.5,7.0,7.36,2,1,0.3119626687406255
50,Oakberry,"Calle de Esparteros, 8,Madrid,Spain,28012",40.415923,-3.705269,7.0,5.0,"['International', 'Brazilian']",23,0,No phone number,1,1,1,"{'Monday': '10:00 - 21:30', 'Tuesday': '09:30 - 21:30', 'Wednesday': '09:30 - 21:30', 'Thursday': '09:30 - 21:30', 'Friday': '09:30 - 21:30', 'Saturday': '09:30 - 21:30', 'Sunday': '10:00 - 21:30'}",https://www.happycow.net/reviews/oakberry-madrid-312080,83.0,7.0,11.86,3,1,0.30111216043553135
51,HanSo Café,"Calle Pez 20, Centro,Madrid,Spain,28004",40.423937,-3.705417,1.0,5.0,['Asian'],1,0,+34-911375429,1,1,1,"{'Monday': '09:00 - 20:00', 'Tuesday': '09:00 - 20:00', 'Wednesday': '09:00 - 20:00', 'Thursday': '09:00 - 20:00', 'Friday': '09:00 - 20:00', 'Saturday': '10:00 - 20:00', 'Sunday': '10:00 - 20:00'}",https://www.happycow.net/reviews/hanso-cafe-madrid-404097,75.0,7.0,10.71,3,1,0.2520919208192138
52,Isla Cake,"Calle de las Fuentes, 6,Madrid,Spain,28013",40.417098,-3.708653,3.0,4.5,[],11,0,+34-633913439,0,1,1,"{'Monday': 'Closed', 'Tuesday': '13:00 - 21:00', 'Wednesday': '13:00 - 21:00', 'Thursday': '13:00 - 21:00', 'Friday': '13:00 - 21:00', 'Saturday': '13:00 - 21:00', 'Sunday': '13:00 - 21:00'}",https://www.happycow.net/reviews/isla-cake-madrid-294674,48.0,6.0,6.86,2,1,0.1
53,The Goood Açaí Club,"C/ de Hortaleza, 25, Centro,Madrid,Spain,28004",40.421778,-3.700154,0.0,0.0,['Brazilian'],0,2,+34-910406872,0,1,0,"{'Monday': '10:00 - 22:00', 'Tuesday': '10:00 - 22:00', 'Wednesday': '10:00 - 22:00', 'Thursday': '10:00 - 22:00', 'Friday': '10:00 - 22:00', 'Saturday': '10:00 - 22:00', 'Sunday': '10:00 - 22:00'}",https://www.happycow.net/reviews/the-goood-acai-club-madrid-434138,84.0,7.0,12.0,1,1,0.3315697276077255
54,Bresca - Virgen de los Peligros,"C. de la Virgen de los Peligros, 7,Madrid,Spain,28013",40.418762,-3.699778,3.0,4.0,"['Italian', 'Spanish']",9,2,+34-914126605,1,1,1,"{'Monday': '12:00 - 00:00', 'Tuesday': '12:00 - 00:00', 'Wednesday': '12:00 - 00:00', 'Thursday': '12:00 - 00:00', 'Friday': '12:00 - 01:00', 'Saturday': '12:00 - 01:00', 'Sunday': '12:00 - 00:00'}",https://www.happycow.net/reviews/bresca-madrid-362972,86.0,7.0,12.29,3,1,0.2486298909319853
55,Wolføx,"C. de Pérez Galdós, 2, Centro,Madrid,Spain,28004",40.422478,-3.70074,2.0,4.5,[],1,0,No phone number,1,1,0,"{'Monday': '10:00 - 19:00', 'Tuesday': '10:00 - 19:00', 'Wednesday': '10:00 - 19:00', 'Thursday': '10:00 - 19:00', 'Friday': '10:00 - 19:00', 'Saturday': '10:00 - 19:00', 'Sunday': '10:00 - 19:00'}",https://www.happycow.net/reviews/wolfoex-madrid-409079,63.0,7.0,9.0,2,1,0.22804251615650983
56,Vibar,"12 Calle de Alcalá,Madrid,Spain,28014",40.417187,-3.700859,9.0,4.5,[],27,0,+34-919994060,1,0,0,"{'Monday': '12:00 - 00:00', 'Tuesday': '12:00 - 00:00', 'Wednesday': '12:00 - 00:00', 'Thursday': '12:00 - 00:00', 'Friday': '12:00 - 01:00', 'Saturday': '12:00 - 01:00', 'Sunday': '12:00 - 00:00'}",https://www.happycow.net/reviews/vibar-madrid-276612,86.0,7.0,12.29,1,1,0.28882321352517454
57,El Patrón,"Calle de Bordadores, 2,Madrid,Spain,28013",40.416403,-3.70763,1.0,3.0,['Mexican'],5,2,+34-678110432,1,1,1,"{'Monday': '14:00 - 22:00', 'Tuesday': '14:00 - 22:00', 'Wednesday': '14:00 - 22:00', 'Thursday': '14:00 - 22:00', 'Friday': '16:00 - 00:00', 'Saturday': '16:00 - 00:00', 'Sunday': '14:00 - 22:00'}",https://www.happycow.net/reviews/el-patron-taqueria-madrid-293410,56.0,7.0,8.0,3,1,0.2548347314038109
58,Tiki Taco - Clavel,"Calle del Clavel, 5,Madrid,Spain,28004",40.420301,-3.699505,7.0,3.5,['Mexican'],34,2,No phone number,0,1,0,"{'Monday': '13:00 - 01:00', 'Tuesday': '13:00 - 01:00', 'Wednesday': '13:00 - 01:00', 'Thursday': '13:00 - 01:00', 'Friday': '13:00 - 01:00', 'Saturday': '13:00 - 01:00', 'Sunday': '13:00 - 01:00'}",https://www.happycow.net/reviews/tiki-taco-clavel-madrid-247937,84.0,7.0,12.0,1,1,0.18836879432624115
59,Pan y Pepinillos Café,"Calle del Escorial, 2,Madrid,Spain,28004",40.423764,-3.702707,2.0,3.0,[],0,0,No phone number,1,1,0,"{'Monday': '08:00 - 20:00', 'Tuesday': '08:00 - 20:00', 'Wednesday': '08:00 - 20:00', 'Thursday': '08:00 - 20:00', 'Friday': '08:00 - 20:00', 'Saturday': '08:00 - 20:00', 'Sunday': '08:00 - 20:00'}",https://www.happycow.net/reviews/pan-y-pepinillos-cafe-madrid-406905,84.0,7.0,12.0,2,1,0.4714723256115402
60,Yerbabuena - Bordadores,"Bordadores, 3,Madrid,Spain,28013",40.41637,-3.70776,159.0,4.0,"['Fusion', 'Spanish']",164,2,+34-915994805,1,0,1,"{'Monday': 'Closed', 'Tuesday': '13:00 - 16:30, 20:00 - 23:30', 'Wednesday': '13:00 - 16:30, 20:00 - 23:30', 'Thursday': '13:00 - 16:30, 20:00 - 23:30', 'Friday': '13:00 - 16:30, 20:00 - 23:30', 'Saturday': '13:00 - 16:30, 20:00 - 23:30', 'Sunday': '13:00 - 16:30'}",https://www.happycow.net/reviews/yerbabuena-madrid-5629,38.5,6.0,5.5,2,1,0.3280399237079422
61,Bambubox,"Calle del Clavel 7, Centro,Madrid,Spain,28004",40.420466,-3.699426,1.0,4.0,"['Thai', 'Asian']",2,3,+34-910146103,1,1,0,"{'Monday': '13:00 - 16:30, 20:00 - 23:30', 'Tuesday': '13:00 - 16:30, 20:00 - 23:30', 'Wednesday': '13:00 - 16:30, 20:00 - 23:30', 'Thursday': '13:00 - 16:30, 20:00 - 23:30', 'Friday': '13:00 - 16:30, 20:00 - 00:00', 'Saturday': '13:00 - 16:30, 20:00 - 00:00', 'Sunday': '13:00 - 16:30, 20:00 - 23:30'}",https://www.happycow.net/reviews/bambubox-madrid-415124,50.0,7.0,7.14,2,1,0.2581686202618373
62,Impasta,"Calle de las Hileras, 2,Madrid,Spain,28013",40.416803,-3.708571,2.0,3.0,['Italian'],12,2,+34-918663878,1,0,1,"{'Monday': '13:00 - 16:00, 20:00 - 23:00', 'Tuesday': '13:00 - 16:00, 20:00 - 23:00', 'Wednesday': '13:00 - 16:00, 20:00 - 23:00', 'Thursday': '13:00 - 16:00, 20:00 - 23:00', 'Friday': '13:00 - 16:00, 20:00 - 23:00', 'Saturday': '13:00 - 16:00, 20:00 - 23:00', 'Sunday': '13:00 - 16:00, 20:00 - 23:00'}",https://www.happycow.net/reviews/impasta-madrid-200709,42.0,7.0,6.0,2,1,0.2568079551136048
63,Tierra Burrito Bar - Espoz y Mina,"Calle de Espoz y Mina, 8,Madrid,Spain,28012",40.416031,-3.702636,13.0,3.5,"['American', 'Mexican']",22,1,+34-911736964,1,0,1,"{'Monday': '12:00 - 00:30', 'Tuesday': '12:00 - 00:30', 'Wednesday': '12:00 - 00:30', 'Thursday': '12:00 - 00:30', 'Friday': '12:00 - 00:30', 'Saturday': '12:00 - 00:30', 'Sunday': '12:00 - 00:30'}",https://www.happycow.net/reviews/tierra-burrito-bar-madrid-109788,87.5,7.0,12.5,2,1,0.31386441493991074
64,UDON - Chueca,"Calle del Clavel, 6,Madrid,Spain,28004",40.420253,-3.699236,14.0,4.0,"['Japanese', 'Asian']",33,2,+34-915323369,1,0,1,"{'Monday': '13:00 - 00:00', 'Tuesday': '13:00 - 00:00', 'Wednesday': '13:00 - 00:00', 'Thursday': '13:00 - 00:00', 'Friday': '13:00 - 00:00', 'Saturday': '13:00 - 00:00', 'Sunday': '13:00 - 00:00'}",https://www.happycow.net/reviews/udon-madrid-140514,77.0,7.0,11.0,2,1,0.18777882710219806
65,Tacita De Plata,"C. Mayor, 31, Centro,Madrid,Spain,28012",40.416063,-3.707432,1.0,3.0,['Spanish'],1,0,+34-615489123,1,1,0,"{'Monday': '08:00 - 22:00', 'Tuesday': '08:00 - 22:00', 'Wednesday': '08:00 - 22:00', 'Thursday': '08:00 - 22:00', 'Friday': '08:00 - 22:00', 'Saturday': '08:00 - 22:00', 'Sunday': '08:00 - 22:00'}",https://www.happycow.net/reviews/tacita-de-plata-madrid-415064,98.0,7.0,14.0,2,1,0.265164157546803
66,JUNGLEKING,"Calle del Marqués Viudo de Pontejos, 15,Madrid,Spain,28012",40.415624,-3.705996,3.0,4.0,"['American', 'European', 'Spanish']",10,2,+34-628639617,1,0,0,"{'Monday': '09:00 - 23:00', 'Tuesday': '09:00 - 23:00', 'Wednesday': '09:00 - 23:00', 'Thursday': '09:00 - 23:00', 'Friday': '09:00 - 00:00', 'Saturday': '09:00 - 00:00', 'Sunday': '09:00 - 23:00'}",https://www.happycow.net/reviews/jungleking-madrid-363337,100.0,7.0,14.29,1,1,0.3742184693442957
67,BLoved Veggie Corner,"Hotel Catalonia, Gran Vía 9,Madrid,Spain,28013",40.419471,-3.699086,39.0,4.0,"['Mediterranean', 'European', 'Spanish']",55,3,+34-915325568,1,0,1,"{'Monday': '13:00 - 23:00', 'Tuesday': '13:00 - 23:00', 'Wednesday': '13:00 - 23:00', 'Thursday': '13:00 - 23:00', 'Friday': '13:00 - 23:00', 'Saturday': '13:00 - 23:00', 'Sunday': '13:00 - 23:00'}",https://www.happycow.net/reviews/bloved-veggie-corner-madrid-157809,70.0,7.0,10.0,2,1,0.29470659037460883
68,Kuraya,"Plaza de Herradores, 7,Madrid,Spain,28013",40.416625,-3.708834,1.0,4.0,"['Japanese', 'Asian']",2,2,+34-910411646,1,1,0,"{'Monday': '13:00 - 16:00, 20:30 - 23:30', 'Tuesday': '13:00 - 16:00, 20:30 - 23:30', 'Wednesday': '13:00 - 16:00, 20:30 - 23:30', 'Thursday': '13:00 - 16:00, 20:30 - 23:30', 'Friday': '13:00 - 16:00, 20:30 - 23:30', 'Saturday': '13:00 - 16:00, 20:30 - 23:30', 'Sunday': '13:00 - 16:00, 20:30 - 23:30'}",https://www.happycow.net/reviews/kuraya-madrid-403087,42.0,7.0,6.0,2,1,0.2593485547099235
69,Ramen Kagura Chueca,"C de San Marcos, 8,Madrid,Spain,28004",40.421583,-3.699384,4.0,3.0,"['Japanese', 'Asian']",10,2,+34-915249130,1,0,1,"{'Monday': '13:00 - 16:00, 20:30 - 23:30', 'Tuesday': '13:00 - 16:00, 20:30 - 23:30', 'Wednesday': '13:00 - 16:00, 20:30 - 23:30', 'Thursday': '13:00 - 16:00, 20:30 - 23:30', 'Friday': '13:00 - 16:00, 20:30 - 23:30', 'Saturday': '13:00 - 16:00, 20:30 - 23:30', 'Sunday': '13:00 - 16:00, 20:30 - 23:30'}",https://www.happycow.net/reviews/ramen-kagura-chueca-madrid-298848,42.0,7.0,6.0,2,1,0.3317782345425254
70,Teapots,"Calle de Postas, 26,Madrid,Spain,28012",40.415547,-3.706438,22.0,5.0,['European'],50,0,+34-913642121,1,1,1,"{'Monday': '09:30 - 19:30', 'Tuesday': 'Closed', 'Wednesday': '09:30 - 19:30', 'Thursday': '09:30 - 19:30', 'Friday': '09:30 - 19:30', 'Saturday': '09:30 - 19:30', 'Sunday': '09:30 - 19:30'}",https://www.happycow.net/reviews/teapots-madrid-257070,60.0,6.0,8.57,3,1,0.37141418069366516
71,Honest Greens - Gran Via,"Gran Via 7,Madrid,Spain,28013",40.41942,-3.698945,40.0,4.0,"['International', 'European']",41,2,+34-931227664,1,1,1,"{'Monday': '08:30 - 23:00', 'Tuesday': '08:30 - 23:00', 'Wednesday': '08:30 - 23:00', 'Thursday': '08:30 - 23:00', 'Friday': '08:30 - 00:00', 'Saturday': '09:30 - 00:00', 'Sunday': '09:30 - 23:00'}",https://www.happycow.net/reviews/honest-greens-madrid-299584,101.5,7.0,14.5,3,1,0.26196322426531865
72,Hungry Panda,"3 Plaza de San Ildefonso,Madrid,Spain,28004",40.424056,-3.702365,2.0,4.0,['Asian'],1,2,+34-669277815,0,1,0,"{'Monday': 'Closed', 'Tuesday': '13:00 - 23:30', 'Wednesday': '13:00 - 23:30', 'Thursday': '13:00 - 23:30', 'Friday': '13:00 - 01:00', 'Saturday': '13:00 - 01:00', 'Sunday': '13:00 - 23:30'}",https://www.happycow.net/reviews/hungry-panda-madrid-375179,66.0,6.0,9.43,1,1,0.3536673888487677
73,New Freedom Cakes Cafe,"Calle de Barcelona, 3,Madrid,Spain,28012",40.415579,-3.702632,17.0,4.0,"['Mediterranean', 'Spanish']",48,2,+34-913153077,1,1,1,"{'Monday': '16:00 - 02:00', 'Tuesday': '16:00 - 02:00', 'Wednesday': '16:00 - 02:00', 'Thursday': '16:00 - 02:00', 'Friday': '16:00 - 02:30', 'Saturday': '12:00 - 02:30', 'Sunday': '12:00 - 02:00'}",https://www.happycow.net/reviews/freedom-cakes-cafe-madrid-384752,79.0,7.0,11.29,3,1,0.22915208414347354
74,BisuPizza,"C. del Espejo, 10,Madrid,Spain,28013",40.41701,-3.70963,2.0,4.0,['Italian'],3,1,+34-910333625,0,1,0,"{'Monday': '12:30 - 16:00, 20:00 - 00:00', 'Tuesday': '12:30 - 16:00, 20:00 - 00:00', 'Wednesday': '12:30 - 16:00, 20:00 - 00:00', 'Thursday': '12:30 - 16:00, 20:00 - 00:00', 'Friday': '12:30 - 16:00, 20:00 - 00:00', 'Saturday': '12:30 - 00:00', 'Sunday': '12:30 - 16:00, 20:00 - 00:00'}",https://www.happycow.net/reviews/bisupizza-madrid-395696,56.5,7.0,8.07,1,1,0.1841838416384275
75,Bar Gyoza Go!,"Plaza del Comandante las Morenas, 5,Madrid,Spain,28013",40.416171,-3.708568,6.0,3.5,"['Chinese', 'Japanese', 'Asian']",22,1,+34-911198033,0,0,0,"{'Monday': '11:00 - 00:00', 'Tuesday': '11:00 - 00:00', 'Wednesday': '11:00 - 00:00', 'Thursday': '11:00 - 00:00', 'Friday': '11:00 - 00:00', 'Saturday': '11:00 - 00:00', 'Sunday': '11:00 - 00:00'}",https://www.happycow.net/reviews/bar-gyoza-go-madrid-222495,91.0,7.0,13.0,0,0,0.27498027887339593
76,Amorino - Mayor,"Mayor 40,Madrid,Spain,28013",40.416095,-3.708446,13.0,4.0,[],15,0,+34-917583355,1,1,1,"{'Monday': '12:00 - 00:00', 'Tuesday': '12:00 - 00:00', 'Wednesday': '12:00 - 00:00', 'Thursday': '12:00 - 00:00', 'Friday': '12:00 - 01:00', 'Saturday': '12:00 - 01:00', 'Sunday': '12:00 - 00:00'}",https://www.happycow.net/reviews/amorino-madrid-81608,86.0,7.0,12.29,3,1,0.3088909875377294
77,Crêperie La Rue,"C. de Colón, 14,Madrid,Spain,28004",40.423881,-3.701506,2.0,3.5,"['European', 'French']",2,2,+34-911897087,1,1,1,"{'Monday': '10:00 - 23:30', 'Tuesday': '10:00 - 23:30', 'Wednesday': '10:00 - 23:30', 'Thursday': '10:00 - 23:30', 'Friday': '10:00 - 00:30', 'Saturday': '10:00 - 00:30', 'Sunday': '10:00 - 23:30'}",https://www.happycow.net/reviews/creperie-la-rue-madrid-407886,96.5,7.0,13.79,3,1,0.23568949873155198
78,Mistura - Augusto Figueroa,"Calle de Augusto Figueroa, 5,Madrid,Spain,28004",40.422973,-3.700137,6.0,4.0,[],15,0,+34-917556391,1,0,1,"{'Monday': '11:30 - 22:30', 'Tuesday': '11:30 - 22:30', 'Wednesday': '11:30 - 22:30', 'Thursday': '11:30 - 22:30', 'Friday': '11:30 - 00:00', 'Saturday': '11:30 - 00:00', 'Sunday': '11:30 - 22:30'}",https://www.happycow.net/reviews/mistura-madrid-204430,80.0,7.0,11.43,2,1,0.10026109660574413
79,Salt in Cake,"C/ de Hortaleza, 37, bajo F, Centro,Madrid,Spain,28004",40.422438,-3.699602,0.0,0.0,['American'],1,0,+34-910408294,1,1,1,"{'Monday': '11:00 - 23:00', 'Tuesday': '11:00 - 23:00', 'Wednesday': '11:00 - 23:00', 'Thursday': '11:00 - 23:00', 'Friday': '11:00 - 00:00', 'Saturday': '11:00 - 00:00', 'Sunday': '11:00 - 23:00'}",https://www.happycow.net/reviews/salt-in-cake-madrid-414915,86.0,7.0,12.29,3,1,0.28418754513638134
80,La Bicicleta,"Plaza de San Ildefonso, 9,Madrid,Spain,28004",40.424129,-3.701721,4.0,4.5,"['Western', 'Spanish']",3,0,+34-915329742,1,1,1,"{'Monday': '10:00 - 01:00', 'Tuesday': '10:00 - 01:00', 'Wednesday': '10:00 - 01:00', 'Thursday': '10:00 - 01:00', 'Friday': '10:00 - 02:00', 'Saturday': '10:00 - 02:00', 'Sunday': '10:00 - 01:00'}",https://www.happycow.net/reviews/la-bicicleta-madrid-282206,107.0,7.0,15.29,3,1,0.16274651408255097
81,Trek Taco,"74 Calle Gran Vía,Madrid,Spain,28015",40.423066,-3.709699,2.0,1.5,['Mexican'],4,2,No phone number,0,0,1,"{'Monday': '13:00 - 00:00', 'Tuesday': '13:00 - 00:00', 'Wednesday': '13:00 - 00:00', 'Thursday': '13:00 - 02:00', 'Friday': '13:00 - 02:00', 'Saturday': '13:00 - 02:00', 'Sunday': '13:00 - 00:00'}",https://www.happycow.net/reviews/trek-taco-madrid-263776,83.0,7.0,11.86,1,1,0.22777882710219804
82,Goconut,"C. Mayor, 47,Madrid,Spain,28013",40.415931,-3.708492,1.0,4.0,[],1,0,No phone number,1,1,0,"{'Monday': '10:00 - 22:00', 'Tuesday': '10:00 - 22:00', 'Wednesday': '10:00 - 22:00', 'Thursday': '10:00 - 22:00', 'Friday': '10:00 - 22:00', 'Saturday': '10:00 - 22:00', 'Sunday': '11:00 - 22:00'}",https://www.happycow.net/reviews/goconut-madrid-408414,83.0,7.0,11.86,2,1,0.2630102031368628
83,Mistura - Ciudad Rodrigo,"Calle de Ciudad Rodrigo, 6,Madrid,Spain,28012",40.4158,-3.708488,10.0,4.5,[],30,0,+34-810524641,1,0,1,"{'Monday': '10:00 - 23:00', 'Tuesday': '10:00 - 23:00', 'Wednesday': '10:00 - 23:00', 'Thursday': '10:00 - 23:00', 'Friday': '10:00 - 00:00', 'Saturday': '10:00 - 00:00', 'Sunday': '10:00 - 23:00'}",https://www.happycow.net/reviews/mistura-madrid-149626,93.0,7.0,13.29,2,1,0.3147128863211303
84,Sol y Roll,"C de San Marcos, 11,Madrid,Spain,28004",40.421612,-3.69874,7.0,3.5,"['International', 'Mediterranean']",8,2,+34-916001622,1,1,1,"{'Monday': 'Closed', 'Tuesday': '13:00 - 16:00, 19:30 - 00:00', 'Wednesday': '13:00 - 16:00, 19:30 - 00:00', 'Thursday': '13:00 - 16:00, 19:30 - 00:00', 'Friday': '13:00 - 16:00, 19:30 - 00:00', 'Saturday': '13:00 - 16:00, 19:30 - 00:00', 'Sunday': '13:00 - 16:00, 19:30 - 00:00'}",https://www.happycow.net/reviews/sol-y-roll-madrid-287304,45.0,6.0,6.43,3,1,0.06718885987815491
85,Shangrila Dimsum,"C. de Leganitos, 26,Madrid,Spain,28013",40.422396,-3.710523,0.0,0.0,"['Asian', 'Fusion']",2,1,+34-919355448,0,1,0,"{'Monday': '13:00 - 23:30', 'Tuesday': '13:00 - 23:30', 'Wednesday': '13:00 - 23:30', 'Thursday': '13:00 - 23:30', 'Friday': '13:00 - 23:30', 'Saturday': '13:00 - 23:30', 'Sunday': '13:00 - 23:30'}",https://www.happycow.net/reviews/shangrila-dimsum-madrid-384928,73.5,7.0,10.5,1,1,0.48254134029590945
86,Thunder Vegan - Malasaña,"Calle Don Felipe, 4,Madrid,Spain,28004",40.424533,-3.702365,94.0,4.5,['American'],214,2,+34-912858518,1,1,1,"{'Monday': '13:00 - 23:00', 'Tuesday': '13:00 - 23:00', 'Wednesday': '13:00 - 23:00', 'Thursday': '13:00 - 23:00', 'Friday': '13:00 - 23:30', 'Saturday': '13:00 - 23:30', 'Sunday': '13:00 - 23:00'}",https://www.happycow.net/reviews/thunder-vegan-madrid-171899,71.0,7.0,10.14,3,1,0.2611121604355314
87,The Cookie Lab ,"C. de San Bartolomé, 7,Madrid,Spain,28004",40.421579,-3.698686,1.0,4.0,[],1,0,+34-631046538,1,1,1,"{'Monday': '09:30 - 21:00', 'Tuesday': '09:30 - 21:00', 'Wednesday': '09:30 - 21:00', 'Thursday': '09:30 - 21:00', 'Friday': '09:30 - 21:00', 'Saturday': '09:30 - 21:00', 'Sunday': '10:00 - 21:00'}",https://www.happycow.net/reviews/the-cookie-lab-madrid-393837,80.0,7.0,11.43,3,1,0.26085106382978723
88,That's Amore,"C de Pelayo, 6,Madrid,Spain,28004",40.421975,-3.698862,1.0,4.0,['Italian'],0,2,+34-912325357,0,0,1,"{'Monday': '19:00 - 23:00', 'Tuesday': 'Closed', 'Wednesday': '19:00 - 23:00', 'Thursday': '19:00 - 23:00', 'Friday': '13:30 - 17:00, 19:00 - 23:30', 'Saturday': '13:30 - 17:00, 19:00 - 23:30', 'Sunday': '13:30 - 17:00, 19:00 - 23:30'}",https://www.happycow.net/reviews/thats-amore-madrid-406867,36.0,6.0,5.14,1,1,0.31026424457900487
89,Biang Biang Bar,"C. de Pelayo, 8,Madrid,Spain,28004",40.422091,-3.698903,3.0,3.5,['Chinese'],4,2,+34-605318790,1,1,1,"{'Monday': '13:00 - 16:00, 20:00 - 22:30', 'Tuesday': 'Closed', 'Wednesday': '13:00 - 15:30, 20:00 - 22:30', 'Thursday': '13:00 - 15:30, 20:00 - 22:30', 'Friday': '13:00 - 15:30, 20:00 - 22:30', 'Saturday': '13:00 - 16:00, 20:00 - 22:30', 'Sunday': '13:00 - 16:00, 20:00 - 22:30'}",https://www.happycow.net/reviews/biang-biang-bar-madrid-360097,31.5,6.0,4.5,3,1,0.5290424606040405
90,VEGA - Alamo,"Calle Alamo, 3,Madrid,Spain,28015",40.42384,-3.709115,174.0,4.5,"['Mediterranean', 'Fusion', 'Spanish']",259,2,+34-910703719,1,0,1,"{'Monday': '13:30 - 23:00', 'Tuesday': '13:30 - 23:00', 'Wednesday': '13:30 - 23:00', 'Thursday': '13:30 - 23:00', 'Friday': '13:30 - 23:00', 'Saturday': '13:30 - 23:30', 'Sunday': '13:30 - 23:30'}",https://www.happycow.net/reviews/vega-alamo-madrid-174548,67.5,7.0,9.64,2,1,0.2022883913856638
91,Eccolo Gelato,"Calle de la Cruz, 25,Madrid,Spain,28012",40.415289,-3.702082,5.0,4.0,[],18,0,+34-669005611,0,0,1,"{'Monday': '16:00 - 01:00', 'Tuesday': '16:00 - 01:00', 'Wednesday': '16:00 - 01:00', 'Thursday': '16:00 - 01:00', 'Friday': '16:00 - 01:00', 'Saturday': '15:00 - 01:00', 'Sunday': '15:00 - 01:00'}",https://www.happycow.net/reviews/eccolo-gelato-madrid-229611,65.0,7.0,9.29,1,1,0.3861274373645909
92,La Hummuseria,"Calle Hernan Cortes 8,Madrid,Spain,28004",40.423435,-3.700027,75.0,4.5,['Mediterranean'],162,1,+34-910226240,1,0,1,"{'Monday': 'Closed', 'Tuesday': 'Closed', 'Wednesday': '13:30 - 16:30, 20:30 - 23:30', 'Thursday': '13:30 - 16:30, 20:30 - 23:30', 'Friday': '13:30 - 16:30, 20:30 - 23:30', 'Saturday': '13:30 - 23:30', 'Sunday': '20:30 - 23:30'}",https://www.happycow.net/reviews/la-hummuseria-madrid-65872,31.0,5.0,4.43,2,1,0.06692776327241079
93,LULULU,"3 Corredera Alta de San Pablo,Madrid,Spain,28004",40.424637,-3.702226,0.0,0.0,[],1,0,+34-686990020,1,1,0,"{'Monday': '10:00 - 22:00', 'Tuesday': '10:00 - 22:00', 'Wednesday': '10:00 - 22:00', 'Thursday': '10:00 - 22:00', 'Friday': '10:00 - 22:00', 'Saturday': '10:00 - 22:00', 'Sunday': '10:00 - 22:00'}",https://www.happycow.net/reviews/lululu-madrid-403702,84.0,7.0,12.0,2,1,0.267778827102198
94,Bucólico Café,"C. de Barbieri, 4,Madrid,Spain,28004",40.420668,-3.698224,1.0,5.0,"['European', 'Spanish']",1,0,+34-663316039,1,1,0,"{'Monday': '08:30 - 14:00', 'Tuesday': '08:30 - 14:00', 'Wednesday': '08:30 - 14:00', 'Thursday': '08:30 - 14:00', 'Friday': '08:30 - 14:00', 'Saturday': '08:30 - 14:00', 'Sunday': '08:30 - 14:00'}",https://www.happycow.net/reviews/bucolico-cafe-madrid-414093,38.5,7.0,5.5,2,1,0.2553017424957873
95,Urbano Specialty Coffee,"Calle Santa Bárbara, 8,Madrid,Spain,28004",40.424363,-3.701492,18.0,4.0,['European'],51,1,+34-918799008,0,0,1,"{'Monday': '09:30 - 19:00', 'Tuesday': '09:30 - 19:00', 'Wednesday': 'Closed', 'Thursday': '09:30 - 19:00', 'Friday': '09:30 - 19:00', 'Saturday': '09:30 - 19:00', 'Sunday': '09:30 - 19:00'}",https://www.happycow.net/reviews/urbano-madrid-162687,57.0,6.0,8.14,1,1,0.16666666666666669
96,Mazál Bagels & Café – Ópera,"Calle de Sta. Clara, 10,Madrid,Spain,28013",40.417427,-3.710793,0.0,0.0,['American'],0,2,+34-919295954,1,1,1,"{'Monday': '09:30 - 20:30', 'Tuesday': '09:30 - 20:30', 'Wednesday': '09:30 - 20:30', 'Thursday': '09:30 - 22:00', 'Friday': '09:30 - 22:00', 'Saturday': '09:30 - 22:00', 'Sunday': '09:30 - 20:30'}",https://www.happycow.net/reviews/mazal-bagels-cafe-opera-madrid-422028,81.5,7.0,11.64,3,1,0.31026424457900487
97,La Desayuneria - Barbieri,"Calle de Barbieri, 4,Madrid,Spain,28004",40.420659,-3.698157,3.0,3.5,"['American', 'Spanish']",4,2,+34-915930893,1,1,1,"{'Monday': '09:00 - 21:00', 'Tuesday': '09:00 - 21:00', 'Wednesday': '09:00 - 21:00', 'Thursday': '09:00 - 21:00', 'Friday': '09:00 - 21:00', 'Saturday': '09:00 - 21:00', 'Sunday': '09:00 - 21:00'}",https://www.happycow.net/reviews/la-desayuneria-madrid-347203,84.0,7.0,12.0,3,1,0.26015962076180954
98,Chök,"Calle Augusto Figueroa 16,Madrid,Spain,28004",40.42248,-3.698952,36.0,4.5,[],62,0,+34-910070662,1,0,0,"{'Monday': '09:00 - 21:00', 'Tuesday': '09:00 - 21:00', 'Wednesday': '09:00 - 21:00', 'Thursday': '09:00 - 21:00', 'Friday': '09:00 - 21:00', 'Saturday': '09:00 - 21:00', 'Sunday': '09:00 - 21:00'}",https://www.happycow.net/reviews/choek-madrid-198367,84.0,7.0,12.0,1,1,0.13333333333333333
99,Cultura Café Creperie,"Calle de Fuencarral, 57, Centro (at Mercado de San Ildefonso),Madrid,Spain,28004",40.424182,-3.700898,0.0,0.0,"['European', 'French', 'Spanish']",0,2,+34-602648787,0,1,1,"{'Monday': '13:00 - 00:00', 'Tuesday': '13:00 - 00:00', 'Wednesday': '13:00 - 00:00', 'Thursday': '13:00 - 00:00', 'Friday': '13:00 - 01:00', 'Saturday': '13:00 - 01:00', 'Sunday': '13:00 - 00:00'}",https://www.happycow.net/reviews/cultura-cafe-creperie-madrid-414817,79.0,7.0,11.29,2,1,0.44495231746384456
100,Falafeleria - Sta Barbara,"Calle Sta Barbara, 4,Madrid,Spain,28004",40.424314,-3.701139,61.0,5.0,"['Mediterranean', 'Middle Eastern']",101,2,+34-911727610,1,1,1,"{'Monday': '13:00 - 23:00', 'Tuesday': '13:00 - 23:00', 'Wednesday': '13:00 - 23:00', 'Thursday': '13:00 - 23:00', 'Friday': '13:00 - 23:30', 'Saturday': '13:00 - 23:30', 'Sunday': '13:00 - 23:00'}",https://www.happycow.net/reviews/falafeleria-madrid-118360,71.0,7.0,10.14,3,1,0.25575097679758535
101,Misión Café,"Calle de los Reyes, 5,Madrid,Spain,28015",40.424208,-3.708787,1.0,3.0,['Spanish'],6,2,+34-910640059,1,0,1,"{'Monday': '09:00 - 20:00', 'Tuesday': '09:00 - 20:00', 'Wednesday': '09:00 - 20:00', 'Thursday': '09:00 - 20:00', 'Friday': '09:00 - 20:00', 'Saturday': '10:00 - 20:00', 'Sunday': '10:00 - 20:00'}",https://www.happycow.net/reviews/mision-cafe-madrid-232224,75.0,7.0,10.71,2,1,0.25752087846971466
102,Aloha Poke - San Pablo,"Corredera Alta de San Pablo, 5,Madrid,Spain,28004",40.42472,-3.702104,4.0,3.0,['Asian'],3,1,+34-919901423,1,1,1,"{'Monday': '11:30 - 23:30', 'Tuesday': '11:30 - 23:30', 'Wednesday': '11:30 - 23:30', 'Thursday': '11:30 - 23:30', 'Friday': '11:30 - 23:30', 'Saturday': '11:30 - 23:30', 'Sunday': '11:30 - 23:30'}",https://www.happycow.net/reviews/aloha-poke-madrid-180301,84.0,7.0,12.0,3,1,0.19849749088013632
103,Mama Dumplings,"Calle de Santiago, 10,Madrid,Spain,28013",40.416455,-3.710056,3.0,4.0,['Chinese'],10,1,+34-698717297,0,0,0,"{'Monday': '12:00 - 00:00', 'Tuesday': '12:00 - 00:00', 'Wednesday': '12:00 - 00:00', 'Thursday': '12:00 - 00:00', 'Friday': '12:00 - 00:00', 'Saturday': '12:00 - 00:00', 'Sunday': '12:00 - 00:00'}",https://www.happycow.net/reviews/mama-dumplings-madrid-343231,84.0,7.0,12.0,0,0,0.3277788271021981
104,Pizzart,"58 Calle de Fuencarral ,Madrid,Spain,28004",40.424009,-3.700444,1.0,4.0,['Italian'],1,2,+34-911088991,1,1,1,"{'Monday': '10:00 - 00:30', 'Tuesday': '10:00 - 00:30', 'Wednesday': '10:00 - 00:30', 'Thursday': '10:00 - 00:30', 'Friday': '10:00 - 00:30', 'Saturday': '11:00 - 00:30', 'Sunday': '11:00 - 00:30'}",https://www.happycow.net/reviews/pizzart-madrid-357602,99.5,7.0,14.21,3,1,0.10365535248041775
105,Korean Kitchen,"Calle de Fuencarral, 57 (at /Inside Mercado de San Ildefonso ),Madrid,Spain,28004",40.424207,-3.700744,0.0,0.0,['Korean'],14,2,+34-915591300,1,0,0,Closed,https://www.happycow.net/reviews/korean-kitchen-madrid-289170,0.0,0.0,0.0,1,1,0.23255263596466863
106,La Rollerie - San Jeronimo,"Carrera de San Jeronimo 26,Madrid,Spain",40.416491,-3.699541,8.0,3.0,['European'],22,2,+34-914296196,1,0,0,"{'Monday': '08:00 - 22:00', 'Tuesday': '08:00 - 22:00', 'Wednesday': '08:00 - 22:00', 'Thursday': '08:00 - 22:00', 'Friday': '08:00 - 22:00', 'Saturday': '08:00 - 22:00', 'Sunday': '08:00 - 22:00'}",https://www.happycow.net/reviews/la-rollerie-madrid-88286,98.0,7.0,14.0,1,1,0.1
107,Demasie,"C de Augusto Figueroa, 23 Madrid, Centro,Madrid,Spain,28004",40.422651,-3.698872,0.0,0.0,['European'],0,0,+34-915562780,1,1,1,"{'Monday': '10:00 - 22:00', 'Tuesday': '10:00 - 22:00', 'Wednesday': '10:00 - 22:00', 'Thursday': '10:00 - 22:00', 'Friday': '10:00 - 22:00', 'Saturday': '10:00 - 22:00', 'Sunday': '10:00 - 22:00'}",https://www.happycow.net/reviews/demasie-madrid-414850,84.0,7.0,12.0,3,1,0.29418439716312056
108,Yum House,"Hotel LETOHLETOH, C. de Leganitos, 41, Centro,Madrid,Spain,28013",40.422607,-3.710954,1.0,4.0,"['Chinese', 'Japanese', 'Asian']",0,2,+34-910930827,1,1,0,"{'Monday': '13:00 - 16:30, 20:00 - 23:30', 'Tuesday': '13:00 - 16:30, 20:00 - 23:30', 'Wednesday': '13:00 - 16:30, 20:00 - 23:30', 'Thursday': '13:00 - 16:30, 20:00 - 23:30', 'Friday': '13:00 - 00:00', 'Saturday': '13:00 - 00:00', 'Sunday': '13:00 - 23:30'}",https://www.happycow.net/reviews/yum-house-madrid-408425,60.5,7.0,8.64,2,1,0.254967686980353
109,Granjero Busca Campero,"C. de Barbieri, 13,Madrid,Spain,28004",40.421447,-3.698085,1.0,3.0,['Spanish'],3,1,+34-669897591,1,1,1,"{'Monday': 'Closed', 'Tuesday': '13:00 - 16:00, 19:30 - 00:00', 'Wednesday': '13:00 - 16:00, 19:30 - 00:00', 'Thursday': '13:00 - 16:00, 19:30 - 00:00', 'Friday': '13:00 - 16:00, 20:00 - 05:00', 'Saturday': '13:00 - 16:00, 20:00 - 05:00', 'Sunday': '19:30 - 00:00'}",https://www.happycow.net/reviews/granjero-busca-campero-madrid-323354,51.0,6.0,7.29,3,1,0.26163435364701965
110,La Deseada,"Calle de Santiago, 20,Madrid,Spain,28013",40.4166,-3.710492,1.0,4.0,"['Mediterranean', 'Middle Eastern', 'Spanish']",3,2,+34-603661674,1,0,0,"{'Monday': '12:00 - 01:00', 'Tuesday': 'Closed', 'Wednesday': '12:00 - 01:00', 'Thursday': '12:00 - 01:00', 'Friday': '12:00 - 01:00', 'Saturday': '12:00 - 01:00', 'Sunday': '12:00 - 01:00'}",https://www.happycow.net/reviews/la-deseada-madrid-189478,78.0,6.0,11.14,1,1,0.2544454937688647
111,Subway - Plaza Jacinto Benavente,"C. de Carretas, 33,Madrid,Spain,28012",40.414646,-3.703091,1.0,3.0,['American'],1,2,+34-911384997,1,0,1,"{'Monday': '00:00 - 00:00', 'Tuesday': '00:00 - 00:00', 'Wednesday': '00:00 - 00:00', 'Thursday': '00:00 - 00:00', 'Friday': '00:00 - 00:00', 'Saturday': '00:00 - 00:00', 'Sunday': '00:00 - 00:00'}",https://www.happycow.net/reviews/subway-plaza-jacinto-benavente-madrid-374561,0.0,7.0,0.0,2,1,0.30072181175119905
112,Hot Now,"Calle de Barbieri, 14,Madrid,Spain,28004",40.421374,-3.697965,5.0,4.0,['Italian'],12,2,+34-910697442,1,0,1,"{'Monday': '20:00 - 23:00', 'Tuesday': '13:30 - 16:00, 20:00 - 23:00', 'Wednesday': '13:30 - 16:00, 20:00 - 23:30', 'Thursday': '13:30 - 16:00, 20:00 - 23:30', 'Friday': '13:30 - 16:00, 20:00 - 00:00', 'Saturday': '13:30 - 16:30, 20:00 - 00:00', 'Sunday': '13:30 - 16:00, 20:00 - 23:00'}",https://www.happycow.net/reviews/hot-now-madrid-172655,39.5,7.0,5.64,2,1,0.21222746884432347
113,Greek and Shop,"Calle Corredera Alta de San Pablo, 9,Madrid,Spain,28004",40.424942,-3.702024,5.0,3.5,['Mediterranean'],5,1,+34-915326083,0,0,1,"{'Monday': '08:00 - 01:00', 'Tuesday': '08:00 - 01:00', 'Wednesday': '08:00 - 01:00', 'Thursday': '08:00 - 02:00', 'Friday': '08:00 - 02:00', 'Saturday': '08:00 - 03:00', 'Sunday': '08:00 - 01:00'}",https://www.happycow.net/reviews/greek-and-shop-madrid-149186,123.0,7.0,17.57,1,1,0.15470659037460885
114,Brando Helado,"Calle de Hortaleza, 55,Madrid,Spain,28004",40.423201,-3.699108,1.0,3.0,['Italian'],2,0,+34-692435041,0,1,0,"{'Monday': '14:00 - 23:30', 'Tuesday': '14:00 - 23:30', 'Wednesday': '14:00 - 23:30', 'Thursday': '14:00 - 23:30', 'Friday': '14:00 - 00:30', 'Saturday': '14:00 - 00:30', 'Sunday': '14:00 - 23:30'}",https://www.happycow.net/reviews/brando-helado-madrid-357922,68.5,7.0,9.79,1,1,0.26830731626020776
115,Pick-Za,"Calle del Espiritu Santo, 16,Madrid,Spain,28004",40.425285,-3.703139,7.0,4.0,['Italian'],9,1,+34-910415763,0,1,1,"{'Monday': '19:00 - 01:00', 'Tuesday': '19:00 - 01:00', 'Wednesday': '19:00 - 01:00', 'Thursday': '19:00 - 01:00', 'Friday': '19:00 - 01:00', 'Saturday': '13:00 - 17:00, 20:00 - 01:00', 'Sunday': '13:00 - 17:00, 20:00 - 00:00'}",https://www.happycow.net/reviews/pick-za-madrid-175639,47.0,7.0,6.71,2,1,0.2917708275466178
116,Cocina Vegetariana Internacional - Maybe closed,"Calle Santiago 9,Madrid,Spain,28013",40.4164,-3.710509,26.0,4.5,"['International', 'Spanish']",88,2,+34-917583588,0,0,0,"{'Monday': '13:00 - 16:00', 'Tuesday': '13:00 - 17:00', 'Wednesday': '13:00 - 17:00', 'Thursday': '13:00 - 17:00, 20:00 - 23:00', 'Friday': '13:00 - 17:00, 20:00 - 23:00', 'Saturday': '13:00 - 17:00, 20:00 - 23:00', 'Sunday': '13:00 - 17:00'}",https://www.happycow.net/reviews/cocina-vegetariana-internacional-madrid-25635,36.0,7.0,5.14,0,0,0.2889513545543766
117,La Paella de la Reina,"Calle de la Reina, 39,Madrid,Spain,28004",40.419741,-3.697569,7.0,3.5,"['Mediterranean', 'European', 'Spanish']",37,2,+34-915311885,1,0,1,"{'Monday': '13:00 - 16:00, 19:30 - 23:30', 'Tuesday': '13:00 - 16:00, 19:30 - 23:30', 'Wednesday': '13:00 - 16:00, 19:30 - 23:30', 'Thursday': '13:00 - 16:00, 19:30 - 23:30', 'Friday': '13:00 - 16:00, 19:30 - 23:30', 'Saturday': '13:00 - 16:00, 19:30 - 23:30', 'Sunday': '13:00 - 16:00, 19:30 - 23:30'}",https://www.happycow.net/reviews/la-paella-de-la-reina-madrid-256388,49.0,7.0,7.0,2,1,0.2749702794289206
118,Lilo Brunch,"C. de la Libertad, 3,Madrid,Spain,28004",40.420353,-3.697569,9.0,4.0,"['International', 'European']",28,1,+34-665945245,1,1,0,"{'Monday': '09:00 - 17:00', 'Tuesday': '09:00 - 17:00', 'Wednesday': '09:00 - 17:00', 'Thursday': '09:00 - 17:00', 'Friday': '09:00 - 17:00', 'Saturday': '09:00 - 18:00', 'Sunday': '09:00 - 18:00'}",https://www.happycow.net/reviews/lilo-brunch-madrid-336504,58.0,7.0,8.29,2,1,0.3622243208710627
119,Nunuka ,"Calle de la Libertad, 13,Madrid,Spain,28004",40.420867,-3.697648,2.0,4.0,['European'],2,3,+34-911700289,1,1,1,"{'Monday': 'Closed', 'Tuesday': '13:30 - 23:30', 'Wednesday': '13:30 - 23:30', 'Thursday': '13:30 - 23:30', 'Friday': '13:30 - 23:30', 'Saturday': '13:30 - 23:30', 'Sunday': '13:30 - 23:30'}",https://www.happycow.net/reviews/nunuka-madrid-385419,60.0,6.0,8.57,3,1,0.17163750162028035
120,Buenasaña,"Calle Corredera Alta de San Pablo, 11,Madrid,Spain,28004",40.425106,-3.702018,4.0,2.5,"['Mediterranean', 'Spanish']",6,1,+34-911265255,1,0,0,"{'Monday': '09:00 - 23:30', 'Tuesday': '09:00 - 23:30', 'Wednesday': '09:00 - 23:30', 'Thursday': '09:00 - 23:30', 'Friday': '09:00 - 01:00', 'Saturday': '09:00 - 01:00', 'Sunday': '09:00 - 01:00'}",https://www.happycow.net/reviews/buenasana-madrid-98841,106.0,7.0,15.14,1,1,0.2737262744662334
121,Solo de Croquetas - Echegaray,"5 Calle de Echegaray,Madrid,Spain,28014",40.416013,-3.699573,4.0,2.5,['Spanish'],14,2,+34-611557748,1,1,1,"{'Monday': '13:30 - 16:00, 19:30 - 00:00', 'Tuesday': '13:30 - 16:00, 19:30 - 00:00', 'Wednesday': '13:30 - 16:00, 19:30 - 00:00', 'Thursday': '13:30 - 16:00, 19:30 - 00:00', 'Friday': '13:30 - 16:30, 19:30 - 01:00', 'Saturday': '13:00 - 17:00, 19:30 - 01:00', 'Sunday': '13:00 - 17:00, 19:30 - 01:00'}",https://www.happycow.net/reviews/solo-de-croquetas-echegaray-madrid-308003,55.5,7.0,7.93,3,1,0.10026109660574412
122,Ojalá,"Calle de San Andrés, 1,Madrid,Spain,28004",40.425521,-3.703954,0.0,0.0,"['International', 'Western', 'Mediterranean', 'Spanish']",1,2,+34-915232747,1,0,0,"{'Monday': '09:00 - 01:00', 'Tuesday': '09:00 - 01:00', 'Wednesday': '09:00 - 01:00', 'Thursday': '09:00 - 01:30', 'Friday': '09:00 - 02:00', 'Saturday': '09:00 - 02:00', 'Sunday': '09:00 - 01:00'}",https://www.happycow.net/reviews/ojala-madrid-357928,114.5,7.0,16.36,1,1,0.2491483806455197
123,Celso Y Manolo ,"Calle Libertad 1,Madrid,Spain",40.420201,-3.697477,4.0,3.5,['Spanish'],22,2,+34-915318079,1,0,0,"{'Monday': '13:00 - 23:00', 'Tuesday': '13:00 - 23:00', 'Wednesday': '13:00 - 23:00', 'Thursday': '13:00 - 23:00', 'Friday': '13:00 - 23:00', 'Saturday': '13:00 - 23:00', 'Sunday': '13:00 - 23:00'}",https://www.happycow.net/reviews/celso-y-manolo-madrid-240119,70.0,7.0,10.0,1,1,0.24915208414347356
124,Mistura - Plaza del Angel,"Plaza del Angel, 2,Madrid,Spain,28012 ",40.414514,-3.702665,2.0,4.5,[],3,0,+34-918616734,1,0,1,"{'Monday': '09:00 - 23:00', 'Tuesday': '09:00 - 23:00', 'Wednesday': '09:00 - 23:00', 'Thursday': '09:00 - 23:00', 'Friday': '09:00 - 00:00', 'Saturday': '09:00 - 00:00', 'Sunday': '09:00 - 23:00'}",https://www.happycow.net/reviews/mistura-madrid-204433,100.0,7.0,14.29,2,1,0.06823324630113142
125,Coco Bar ,"C/ Espíritu Santo 36,Madrid,Spain,28004",40.425586,-3.704797,0.0,0.0,"['International', 'Fusion', 'Spanish']",6,1,+34-915217342,0,0,1,"{'Monday': '18:30 - 01:00', 'Tuesday': '18:30 - 01:00', 'Wednesday': 'Closed', 'Thursday': '13:00 - 01:00', 'Friday': '13:00 - 01:00', 'Saturday': '13:00 - 01:00', 'Sunday': 'Closed'}",https://www.happycow.net/reviews/coco-bar-madrid-216798,49.0,5.0,7.0,1,1,0.22085106382978725
126,O Cacho do Jose,"Plaza de Santa Ana, 1,Madrid,Spain,28012",40.414998,-3.701184,1.0,3.0,"['Italian', 'Mediterranean', 'Spanish']",0,2,+34-915210984,1,0,0,"{'Monday': '09:30 - 01:00', 'Tuesday': '09:30 - 01:00', 'Wednesday': '09:30 - 01:00', 'Thursday': '09:30 - 01:00', 'Friday': '09:30 - 01:00', 'Saturday': '09:30 - 01:00', 'Sunday': '09:30 - 01:00'}",https://www.happycow.net/reviews/o-cacho-do-jose-madrid-405805,108.5,7.0,15.5,1,1,0.2771920078514157
127,Araldo,"Calle de los Madrazo, 5 (at Paseo del Prado),Madrid,Spain,28014",40.417597,-3.698066,3.0,3.5,['Italian'],5,2,+34-911384165,1,0,1,"{'Monday': '13:00 - 16:30, 20:00 - 00:00', 'Tuesday': '13:00 - 16:30, 20:00 - 00:00', 'Wednesday': '13:00 - 16:30, 20:00 - 00:00', 'Thursday': '13:00 - 16:30, 20:00 - 00:00', 'Friday': '13:00 - 16:30, 20:00 - 00:30', 'Saturday': '13:00 - 16:30, 20:00 - 00:30', 'Sunday': 'Closed'}",https://www.happycow.net/reviews/araldo-madrid-154107,46.0,6.0,6.57,2,1,0.3688172879284485
128,Delish Vegan Doughnuts - Malasaña,"Corredera alta de San Pablo, 12,Madrid,Spain,28004",40.425181,-3.701897,70.0,4.5,[],112,0,No phone number,1,1,1,"{'Monday': '10:30 - 21:00', 'Tuesday': '10:30 - 21:00', 'Wednesday': '10:30 - 21:00', 'Thursday': '10:30 - 21:00', 'Friday': '10:30 - 21:00', 'Saturday': '10:30 - 21:30', 'Sunday': '10:30 - 21:30'}",https://www.happycow.net/reviews/delish-vegan-doughnuts-madrid-245887,74.5,7.0,10.64,3,1,0.2337262744662334
129,Toto Ice Cream & Coffee,"Corredera Alta de San Pablo, 12,Madrid,Spain,28004",40.425181,-3.701897,4.0,4.0,[],14,0,+34-627822842,1,0,1,"{'Monday': '10:00 - 00:00', 'Tuesday': '10:00 - 00:00', 'Wednesday': '10:00 - 00:00', 'Thursday': '10:00 - 00:00', 'Friday': '10:00 - 01:00', 'Saturday': '10:00 - 01:00', 'Sunday': '10:00 - 00:00'}",https://www.happycow.net/reviews/toto-ice-cream-and-coffee-madrid-203544,100.0,7.0,14.29,2,1,0.20248541747680684
130,Faborit - Shibuya,"Plaza de España 2,Madrid,Spain,28008",40.422971,-3.711219,2.0,2.5,['European'],3,0,+34-915476359,1,1,1,"{'Monday': '08:00 - 22:00', 'Tuesday': '08:00 - 22:00', 'Wednesday': '08:00 - 22:00', 'Thursday': '08:00 - 22:00', 'Friday': '08:00 - 22:00', 'Saturday': '08:00 - 22:00', 'Sunday': '08:00 - 22:00'}",https://www.happycow.net/reviews/faborit-shibuya-madrid-333445,98.0,7.0,14.0,3,1,0.19418439716312058
131,Macayaki,"C de Augusto Figueroa, 22, Centro,Madrid,Spain,28004",40.422135,-3.697923,1.0,4.0,"['Japanese', 'European', 'Fusion']",0,0,+34-911479067,0,1,0,"{'Monday': 'Closed', 'Tuesday': '11:00 - 21:30', 'Wednesday': '11:00 - 21:30', 'Thursday': '11:00 - 23:00', 'Friday': '11:00 - 23:00', 'Saturday': '11:00 - 23:00', 'Sunday': '11:00 - 21:30'}",https://www.happycow.net/reviews/macayaki-madrid-405259,67.5,6.0,9.64,1,1,0.3487669203562765
132,Almalibre Açaí House,"Calle de la Libertad, 17,Madrid,Spain,28004",40.421137,-3.697448,22.0,4.5,"['American', 'Mediterranean', 'Fusion', 'Brazilian']",64,2,+34-911633596,1,0,1,"{'Monday': '09:30 - 19:30', 'Tuesday': '09:30 - 19:30', 'Wednesday': '09:30 - 19:30', 'Thursday': '09:30 - 19:30', 'Friday': '09:30 - 19:30', 'Saturday': '09:30 - 19:30', 'Sunday': '09:30 - 16:00'}",https://www.happycow.net/reviews/almalibre-acai-house-madrid-207473,66.5,7.0,9.5,2,1,0.27000314797326075
133,Aloha Poke - Chueca,"Calle de la Libertad, 17,Madrid,Spain,28004",40.421137,-3.697448,3.0,2.5,['Asian'],3,2,+34-910005099,1,1,1,"{'Monday': '11:30 - 23:00', 'Tuesday': '11:30 - 23:00', 'Wednesday': '11:30 - 23:00', 'Thursday': '11:30 - 23:00', 'Friday': '11:30 - 23:00', 'Saturday': '11:30 - 23:00', 'Sunday': '11:30 - 23:00'}",https://www.happycow.net/reviews/aloha-poke-madrid-228280,80.5,7.0,11.5,3,1,0.2944454937688647
134,Pantín Grill,"10 Calle de Echegaray,Madrid,Spain,28014",40.415678,-3.69968,1.0,4.0,['American'],1,2,+34-914929219,1,1,0,"{'Monday': '13:00 - 16:30, 20:00 - 23:30', 'Tuesday': '13:00 - 16:30, 20:00 - 23:30', 'Wednesday': '13:00 - 16:30, 20:00 - 23:30', 'Thursday': '13:00 - 16:30, 20:00 - 23:30', 'Friday': '13:00 - 00:00', 'Saturday': '13:00 - 00:00', 'Sunday': '13:00 - 23:30'}",https://www.happycow.net/reviews/pantin-grill-madrid-393344,60.5,7.0,8.64,2,1,0.3296594633631465
135,Artemisa Sol - Huertas,"Ventura de la Vega, 4,Madrid,Spain,28014",40.41633,-3.69889,57.0,4.0,['Spanish'],81,2,+34-914295092,1,0,0,"{'Monday': '13:30 - 16:00, 21:00 - 00:00', 'Tuesday': '13:30 - 16:00, 21:00 - 00:00', 'Wednesday': '13:30 - 16:00, 21:00 - 00:00', 'Thursday': '13:30 - 16:00, 21:00 - 00:00', 'Friday': '13:30 - 16:00, 21:00 - 00:00', 'Saturday': '13:30 - 16:00, 21:00 - 00:00', 'Sunday': '13:30 - 16:00, 21:00 - 00:00'}",https://www.happycow.net/reviews/artemisa-sol-madrid-8099,38.5,7.0,5.5,1,1,0.36085106382978727
136,Ginkgo ,"Pl de España, 3,Madrid,Spain,28008",40.422832,-3.711445,1.0,4.0,"['International', 'Fusion']",0,3,+34-915955512,1,1,1,"{'Monday': '13:00 - 01:00', 'Tuesday': '13:00 - 01:00', 'Wednesday': '13:00 - 01:00', 'Thursday': '13:00 - 01:00', 'Friday': '13:00 - 02:30', 'Saturday': '13:00 - 02:30', 'Sunday': '13:00 - 01:00'}",https://www.happycow.net/reviews/ginkgo-madrid-408585,87.0,7.0,12.43,3,1,0.2894131807492176
137,100 Montaditos - Centro,"Calle del Príncipe, 18,Madrid,Spain,28012",40.415242,-3.700343,2.0,3.0,['Spanish'],4,2,+34-915328791,1,1,1,"{'Monday': '10:00 - 00:00', 'Tuesday': '10:00 - 00:00', 'Wednesday': '10:00 - 00:00', 'Thursday': '10:00 - 00:00', 'Friday': '10:00 - 01:00', 'Saturday': '12:00 - 01:00', 'Sunday': '12:00 - 00:00'}",https://www.happycow.net/reviews/one-hundred-montaditos-madrid-367450,96.0,7.0,13.71,3,1,0.22412606707034796
138,Zuccaru,"Calle de Vergara, 16,Madrid,Spain,28013",40.41723,-3.711617,9.0,4.5,[],12,0,+34-639330801,1,0,0,"{'Monday': '10:00 - 18:00', 'Tuesday': '10:00 - 18:00', 'Wednesday': 'Closed', 'Thursday': '10:00 - 18:00', 'Friday': '10:00 - 18:00', 'Saturday': '11:00 - 20:00', 'Sunday': '11:00 - 20:00'}",https://www.happycow.net/reviews/zuccaru-madrid-98565,50.0,6.0,7.14,1,1,0.2971920078514157
139,Persa Casera,"C de San Vicente Ferrer, 23,Madrid,Spain,28004",40.425612,-3.703108,3.0,4.0,['Middle Eastern'],5,2,+34-657232482,1,0,1,"{'Monday': '13:00 - 17:00, 20:00 - 01:00', 'Tuesday': '13:00 - 17:00, 20:00 - 01:00', 'Wednesday': '13:00 - 17:00, 20:00 - 01:00', 'Thursday': '13:00 - 17:00, 20:00 - 01:00', 'Friday': '13:00 - 17:00, 20:00 - 01:00', 'Saturday': '13:00 - 17:00, 20:00 - 01:00', 'Sunday': '13:00 - 17:00, 20:00 - 01:00'}",https://www.happycow.net/reviews/persa-casera-madrid-254017,63.0,7.0,9.0,2,1,0.2608510638297873
140,La Cocina de mi Vecina,"Corre. Alta de San Pablo, 15,Madrid,Spain,28004",40.425347,-3.701996,1.0,4.0,['European'],0,0,+34-910252617,1,1,1,"{'Monday': '10:00 - 22:00', 'Tuesday': '10:00 - 22:00', 'Wednesday': '10:00 - 22:00', 'Thursday': '10:00 - 22:00', 'Friday': '10:00 - 22:00', 'Saturday': '10:00 - 22:00', 'Sunday': '10:00 - 22:00'}",https://www.happycow.net/reviews/la-cocina-de-mi-vecina-madrid-409256,84.0,7.0,12.0,3,1,0.2717682350980501
141,DimSum Market,"C/ Príncipe, 19 (at off Plaza Santa Ana),Madrid,Spain,28012",40.415257,-3.700218,18.0,3.5,"['Chinese', 'Asian']",63,1,+34-911569288,1,0,1,"{'Monday': '12:30 - 00:00', 'Tuesday': '12:30 - 00:00', 'Wednesday': '12:30 - 00:00', 'Thursday': '12:30 - 00:00', 'Friday': '12:30 - 00:00', 'Saturday': '12:30 - 00:00', 'Sunday': '12:30 - 00:00'}",https://www.happycow.net/reviews/dimsum-market-madrid-73205,80.5,7.0,11.5,2,1,0.2552287835860971
142,Babel Restaurante,"23 Calle de la Libertad,Madrid,Spain,28004",40.421529,-3.69747,1.0,3.0,"['Mediterranean', 'European', 'Spanish']",4,2,+34-915216137,0,1,1,"{'Monday': '13:00 - 16:00, 20:00 - 23:30', 'Tuesday': '13:00 - 16:00, 20:00 - 23:30', 'Wednesday': '13:00 - 16:00, 20:00 - 23:30', 'Thursday': '13:00 - 16:00, 20:00 - 23:30', 'Friday': '13:00 - 16:00, 20:00 - 00:00', 'Saturday': '13:00 - 16:00, 20:00 - 00:00', 'Sunday': '13:00 - 16:00, 20:00 - 23:30'}",https://www.happycow.net/reviews/babel-restaurante-madrid-323562,46.5,7.0,6.64,2,1,0.24353609984630484
143,Para Veganos VIP,"San Vicente Ferrer 35,Madrid,Spain,28004",40.425794,-3.704575,8.0,5.0,[],13,0,No phone number,1,0,0,Closed,https://www.happycow.net/reviews/para-veganos-vip-madrid-142853,0.0,0.0,0.0,1,1,0.26640186656296877
144,J & J Books and Coffee - Maybe closed,"Calle del Espíritu Santo, 47,Madrid,Spain,28004",40.425647,-3.706701,2.0,4.0,"['International', 'European']",18,1,+34-915218576,1,1,0,"{'Monday': '16:00 - 22:00', 'Tuesday': '16:00 - 22:00', 'Wednesday': '16:00 - 22:00', 'Thursday': '16:00 - 22:00', 'Friday': '12:00 - 00:00', 'Saturday': '11:00 - 23:30', 'Sunday': '11:00 - 17:00'}",https://www.happycow.net/reviews/j-j-books-and-coffee-madrid-222497,54.5,7.0,7.79,2,1,0.31000574042182844
145,Indian Aroma,"C de Ventura de la Vega, 6,Madrid,Spain,28014",40.415959,-3.699137,11.0,4.0,['Indian'],28,2,+34-913692333,1,0,1,"{'Monday': '13:00 - 16:00, 20:00 - 00:30', 'Tuesday': '13:00 - 16:00, 20:00 - 00:30', 'Wednesday': '13:00 - 16:00, 20:00 - 00:30', 'Thursday': '13:00 - 16:00, 20:00 - 00:30', 'Friday': '13:00 - 16:00, 20:00 - 00:30', 'Saturday': '13:00 - 16:00, 20:00 - 00:30', 'Sunday': '13:00 - 16:00, 20:00 - 00:30'}",https://www.happycow.net/reviews/indian-aroma-madrid-250963,52.5,7.0,7.5,2,1,0.2544454937688647
146,44 Sushi Bar,"Calle del Marqués de Valdeiglesias, 8,Madrid,Spain,28004",40.419864,-3.69712,1.0,3.0,"['Japanese', 'Asian']",1,2,+34-810524441,0,1,1,"{'Monday': '12:30 - 16:30, 20:00 - 23:30', 'Tuesday': '12:30 - 16:30, 20:00 - 23:30', 'Wednesday': '12:30 - 16:30, 20:00 - 23:30', 'Thursday': '12:30 - 16:30, 20:00 - 00:00', 'Friday': '12:30 - 17:00, 20:00 - 00:30', 'Saturday': '12:30 - 17:00, 20:00 - 00:30', 'Sunday': '12:30 - 17:00, 20:00 - 23:30'}",https://www.happycow.net/reviews/forty-four-sushi-bar-madrid-357924,56.5,7.0,8.07,2,1,0.2285621169194304
147,Arepa Mia,"28 Calle de San Vicente Ferrer,Madrid,Spain,28004",40.425767,-3.703532,1.0,4.0,['Latin'],4,2,No phone number,0,0,0,"{'Monday': 'Closed', 'Tuesday': '13:00 - 16:00, 19:00 - 00:00', 'Wednesday': '13:00 - 16:00, 19:00 - 00:00', 'Thursday': '13:00 - 16:00, 19:00 - 00:00', 'Friday': '13:00 - 16:00, 19:00 - 00:00', 'Saturday': '13:00 - 16:00, 19:00 - 00:00', 'Sunday': '13:00 - 16:00, 19:00 - 00:00'}",https://www.happycow.net/reviews/arepa-mia-madrid-388971,48.0,6.0,6.86,0,0,0.3196863137233117
148,Okashi Sanda,"Calle de San Vicente Ferrer, 22,Madrid,Spain,28004",40.425738,-3.703267,19.0,4.0,"['Japanese', 'Asian']",39,2,+34-913654402,1,0,1,"{'Monday': 'Closed', 'Tuesday': 'Closed', 'Wednesday': 'Closed', 'Thursday': '20:00 - 23:00', 'Friday': '13:00 - 16:00, 20:00 - 23:00', 'Saturday': '13:00 - 16:00, 20:00 - 23:00', 'Sunday': '13:00 - 16:00'}",https://www.happycow.net/reviews/okashi-sanda-madrid-228467,18.0,4.0,2.57,2,1,0.03489991296779808
149,PerrisBurgers,"Calle San Vicente Ferrer 38,Madrid,Spain",40.425867,-3.704429,0.0,0.0,"['American', 'Western']",6,1,No phone number,0,0,0,"{'Monday': '22:00 - 03:00', 'Tuesday': 'Closed', 'Wednesday': '22:00 - 03:00', 'Thursday': '22:00 - 03:00', 'Friday': '22:00 - 06:00', 'Saturday': '22:00 - 06:00', 'Sunday': '22:00 - 03:00'}",https://www.happycow.net/reviews/perrisburgers-madrid-90420,36.0,6.0,5.14,0,0,0.06666666666666667
150,Häagen-Dazs,"Calle de Bailén, 15,Madrid,Spain,28013",40.419993,-3.712764,0.0,0.0,['American'],0,0,+34-910526031,1,0,1,"{'Monday': '10:00 - 01:00', 'Tuesday': '10:00 - 01:00', 'Wednesday': '10:00 - 01:00', 'Thursday': '10:00 - 01:00', 'Friday': '10:00 - 01:30', 'Saturday': '10:00 - 01:30', 'Sunday': '10:00 - 01:00'}",https://www.happycow.net/reviews/haeagen-dazs-madrid-306790,106.0,7.0,15.14,2,1,0.3670010925318964
151,Superchulo,"Calle de Fuencarral, 74,Madrid,Spain,28004",40.425075,-3.700721,92.0,4.5,"['Western', 'Mediterranean', 'Spanish']",161,1,+34-910232706,1,0,0,"{'Monday': '10:00 - 00:00', 'Tuesday': '10:00 - 00:00', 'Wednesday': 'Closed', 'Thursday': '10:00 - 00:00', 'Friday': '10:00 - 00:00', 'Saturday': '10:00 - 00:00', 'Sunday': '10:00 - 00:00'}",https://www.happycow.net/reviews/superchulo-madrid-97861,84.0,6.0,12.0,1,1,0.13411662315056572
152,The Quick Greek," C de San Bernardo, 53,Madrid,Spain,28015",40.425702,-3.707394,0.0,0.0,['Mediterranean'],3,1,+34-913309499,1,1,1,"{'Monday': '12:30 - 16:00, 19:00 - 23:00', 'Tuesday': '12:30 - 16:00, 19:00 - 23:00', 'Wednesday': '12:30 - 16:00, 19:00 - 23:00', 'Thursday': '12:30 - 16:00, 19:00 - 23:00', 'Friday': '12:30 - 00:00', 'Saturday': '12:30 - 00:00', 'Sunday': '12:30 - 00:00'}",https://www.happycow.net/reviews/the-quick-greek-madrid-280944,64.5,7.0,9.21,3,1,0.5782463937188675
153,Pizzi & Dixie,"Calle San Vicente Ferrer 16,Madrid,Spain,28004",40.425836,-3.702809,195.0,4.5,"['Italian', 'European', 'Spanish']",379,2,+34-912659887,1,0,1,"{'Monday': '13:30 - 16:00, 20:30 - 23:30', 'Tuesday': '13:30 - 16:00, 20:30 - 23:30', 'Wednesday': '13:30 - 16:00, 20:30 - 23:30', 'Thursday': '13:30 - 16:00, 20:30 - 23:30', 'Friday': '13:30 - 16:00, 20:30 - 00:00', 'Saturday': '13:30 - 16:00, 20:30 - 00:00', 'Sunday': '13:30 - 16:00, 17:00 - 18:00'}",https://www.happycow.net/reviews/pizzi-dixie-madrid-92445,37.5,7.0,5.36,2,1,0.29418439716312056
154,Secrets Chueca,"C. de la Libertad, 26,Madrid,Spain,28004",40.4219,-3.697278,1.0,4.0,"['International', 'Western', 'Mediterranean']",0,2,No phone number,1,1,0,"{'Monday': '09:30 - 23:30', 'Tuesday': '09:30 - 23:30', 'Wednesday': '09:30 - 23:30', 'Thursday': '09:30 - 23:30', 'Friday': '09:30 - 23:30', 'Saturday': '10:00 - 00:30', 'Sunday': '09:30 - 00:00'}",https://www.happycow.net/reviews/secrets-chueca-madrid-393835,99.0,7.0,14.14,2,1,0.2228168805436735
155,La Rollerie - Atocha,"Calle de Atocha, 20,Madrid,Spain",40.413936,-3.703105,11.0,3.5,['European'],26,1,+34-914204675,1,0,0,"{'Monday': '08:00 - 22:30', 'Tuesday': '08:00 - 22:30', 'Wednesday': '08:00 - 22:30', 'Thursday': '08:00 - 22:30', 'Friday': '08:00 - 22:30', 'Saturday': '08:00 - 22:30', 'Sunday': '08:00 - 22:30'}",https://www.happycow.net/reviews/la-rollerie-madrid-70365,101.5,7.0,14.5,1,1,0.2967953632205619
156,Coco Bar - Tirso de Molina,"Calle del Conde de Romanones, 3 (at  Generación X),Madrid,Spain,28012",40.413759,-3.704579,1.0,4.0,"['American', 'International']",10,1,+34-911593339,1,1,1,"{'Monday': '10:30 - 20:30', 'Tuesday': '10:30 - 20:30', 'Wednesday': '10:30 - 20:30', 'Thursday': '10:30 - 21:00', 'Friday': '10:30 - 23:00', 'Saturday': '10:30 - 21:00', 'Sunday': '11:30 - 20:30'}",https://www.happycow.net/reviews/coco-bar-tirso-de-molina-madrid-329300,72.5,7.0,10.36,3,1,0.23496768698035295
157,Le.cha - 乐茶,"23 Calle de Toledo,Madrid,Spain,28005",40.414059,-3.707373,1.0,5.0,[],3,0,+34-611050860,0,0,1,"{'Monday': '12:00 - 21:30', 'Tuesday': '12:00 - 21:30', 'Wednesday': '12:00 - 21:30', 'Thursday': '12:00 - 21:30', 'Friday': '12:00 - 21:30', 'Saturday': '12:00 - 21:30', 'Sunday': '12:00 - 21:30'}",https://www.happycow.net/reviews/le-cha-madrid-308442,66.5,7.0,9.5,1,1,0.22777882710219804
158,Four ,"C. de Calderón de la Barca, 8, Centro,Madrid,Spain,28013",40.416017,-3.711153,1.0,4.0,['Spanish'],1,0,+34-622571608,1,1,0,"{'Monday': '10:00 - 18:00', 'Tuesday': 'Closed', 'Wednesday': '10:00 - 18:00', 'Thursday': '10:00 - 18:00', 'Friday': '10:00 - 18:00', 'Saturday': '10:00 - 18:00', 'Sunday': '10:00 - 18:00'}",https://www.happycow.net/reviews/four-madrid-405304,48.0,6.0,6.86,2,1,0.22734329574282913
159,Vegaviana,"Calle Pelayo, 35,Madrid,Spain",40.42341,-3.69808,20.0,3.5,"['Mediterranean', 'Spanish']",14,2,+34-913080381,0,0,0,"{'Monday': 'Closed', 'Tuesday': '13:30 - 16:00, 21:00 - 23:30', 'Wednesday': '13:30 - 16:00, 21:00 - 23:30', 'Thursday': '13:30 - 16:00, 21:00 - 23:30', 'Friday': '13:30 - 16:00, 21:00 - 00:00', 'Saturday': '13:30 - 16:00, 21:00 - 00:00', 'Sunday': '13:30 - 16:00'}",https://www.happycow.net/reviews/vegaviana-madrid-6038,28.5,6.0,4.07,0,0,0.25477695683573137
160,Federal,"Plaza del Conde de Barajas,Madrid,Spain,28005",40.414406,-3.708725,10.0,3.5,"['European', 'Spanish']",24,1,+34-918526848,1,0,1,"{'Monday': '09:00 - 00:00', 'Tuesday': '09:00 - 00:00', 'Wednesday': '09:00 - 00:00', 'Thursday': '09:00 - 00:00', 'Friday': '09:00 - 01:00', 'Saturday': '09:00 - 01:00', 'Sunday': '09:00 - 17:30'}",https://www.happycow.net/reviews/federal-madrid-152983,100.5,7.0,14.36,2,1,0.3440219987778457
161,Barganzo,"Calle Colmenares, 13,Madrid,Spain,28004",40.421073,-3.696813,37.0,5.0,"['Mediterranean', 'Middle Eastern']",48,2,+34-910443233,1,0,0,"{'Monday': '13:00 - 16:30, 20:00 - 23:00', 'Tuesday': '13:00 - 16:30, 20:00 - 23:00', 'Wednesday': '13:00 - 16:30, 20:00 - 23:00', 'Thursday': '13:00 - 16:30, 20:00 - 23:00', 'Friday': '13:00 - 16:30', 'Saturday': 'Closed', 'Sunday': '13:00 - 17:30, 20:00 - 23:00'}",https://www.happycow.net/reviews/barganzo-madrid-194084,37.0,6.0,5.29,1,1,0.2890843101309187
162,Restaurant Sublime World,"C. de Concepción Jerónima, 28,Madrid,Spain,28012",40.413887,-3.707082,1.0,3.0,['American'],6,2,+34-919417153,1,1,1,"{'Monday': '13:00 - 16:00, 20:00 - 00:00', 'Tuesday': 'Closed', 'Wednesday': '13:00 - 16:00, 20:00 - 00:00', 'Thursday': '13:00 - 16:00, 20:00 - 00:00', 'Friday': '13:00 - 17:00, 20:00 - 00:30', 'Saturday': '13:00 - 17:00, 19:30 - 01:00', 'Sunday': '13:00 - 17:00, 19:30 - 00:00'}",https://www.happycow.net/reviews/restaurant-sublime-world-madrid-283205,47.5,6.0,6.79,3,1,0.32803992370794216
163,Sr Ceviche,"Calle San Mateo 6,Madrid,Spain,28003",40.425048,-3.700118,1.0,4.0,['Latin'],2,2,+34-625419596,1,1,1,"{'Monday': '14:00 - 17:00, 20:00 - 23:00', 'Tuesday': '14:00 - 17:00, 20:00 - 23:00', 'Wednesday': '14:00 - 17:00, 20:00 - 23:00', 'Thursday': '14:00 - 17:00, 20:00 - 23:00', 'Friday': '14:00 - 03:00', 'Saturday': '14:00 - 03:00', 'Sunday': '14:00 - 23:00'}",https://www.happycow.net/reviews/sr-ceviche-madrid-342940,59.0,7.0,8.43,3,1,0.10026109660574413
164,Labonata Heladeria ,"8 Plaza de Chueca,Madrid,Spain,28004",40.42268,-3.697452,0.0,0.0,['Italian'],1,0,No phone number,1,1,1,"{'Monday': '14:00 - 23:00', 'Tuesday': '14:00 - 23:00', 'Wednesday': '14:00 - 23:00', 'Thursday': '14:00 - 23:00', 'Friday': '14:00 - 23:00', 'Saturday': '13:00 - 00:00', 'Sunday': '13:00 - 23:00'}",https://www.happycow.net/reviews/labonata-heladeria-madrid-346469,66.0,7.0,9.43,3,1,0.24889098753772942
165,Noburu,"C. del Dos de Mayo, 9,Madrid,Spain,28004",40.426223,-3.704244,2.0,4.5,['Spanish'],2,0,+34-650600549,0,1,1,"{'Monday': '08:00 - 19:00', 'Tuesday': '08:00 - 16:00', 'Wednesday': '08:00 - 16:00', 'Thursday': '08:00 - 16:00', 'Friday': '08:00 - 16:00', 'Saturday': '09:00 - 17:00', 'Sunday': '10:00 - 17:00'}",https://www.happycow.net/reviews/noburu-madrid-409775,58.0,7.0,8.29,2,1,0.35490509786493346
166,Ramen Shifu - Calle de Toledo,"Calle de Toledo, 24,Madrid,Spain,28005",40.413922,-3.7076,16.0,4.0,"['Japanese', 'Asian']",56,2,+34-910581854,1,1,1,"{'Monday': 'Closed', 'Tuesday': '13:00 - 16:30, 20:00 - 23:30', 'Wednesday': '13:00 - 16:30, 20:00 - 23:30', 'Thursday': '13:00 - 16:30, 20:00 - 23:30', 'Friday': '13:00 - 16:30, 20:00 - 00:00', 'Saturday': '13:00 - 16:30, 20:00 - 00:00', 'Sunday': '13:00 - 16:30, 20:00 - 23:30'}",https://www.happycow.net/reviews/ramen-shifu-madrid-194673,43.0,6.0,6.14,3,1,0.26085106382978723
167,Cafestic,"Calle de Cuchilleros, 19,Madrid,Spain,28005",40.413983,-3.708039,1.0,4.0,"['Western', 'Spanish']",0,2,No phone number,0,0,1,"{'Monday': '08:30 - 01:00', 'Tuesday': '08:30 - 01:00', 'Wednesday': '08:30 - 01:00', 'Thursday': '08:30 - 01:00', 'Friday': '08:30 - 01:00', 'Saturday': '08:30 - 01:00', 'Sunday': '08:30 - 01:00'}",https://www.happycow.net/reviews/cafestic-madrid-381185,115.5,7.0,16.5,1,1,0.2758187508101402
168,Brutal Burrito,"Calle de San Bernardo, 64,Madrid,Spain,28015",40.426189,-3.706818,2.0,3.5,"['American', 'Mexican']",3,2,+34-629879429,1,1,0,"{'Monday': '17:00 - 22:30', 'Tuesday': '17:00 - 22:30', 'Wednesday': '17:00 - 22:30', 'Thursday': '17:00 - 22:30', 'Friday': '17:00 - 22:30', 'Saturday': '17:00 - 22:30', 'Sunday': '17:00 - 22:30'}",https://www.happycow.net/reviews/brutal-burrito-madrid-367715,38.5,7.0,5.5,2,1,0.29607984741588433
169,Carmencita Brunch,"C. de San Vicente Ferrer, 57, Centro,Madrid,Spain,28015",40.425938,-3.707937,2.0,4.0,"['Western', 'Mexican']",4,2,+34-910003890,1,1,0,"{'Monday': '09:00 - 16:30', 'Tuesday': '09:00 - 16:30', 'Wednesday': '09:00 - 16:30', 'Thursday': '09:00 - 16:30', 'Friday': '09:00 - 16:30', 'Saturday': '09:00 - 16:30', 'Sunday': '09:00 - 16:30'}",https://www.happycow.net/reviews/carmencita-brunch-madrid-399834,52.5,7.0,7.5,2,1,0.34909060607744014
170,Brunchit - Malasaña,"12 Calle del Noviciado,Madrid,Spain,28015",40.425713,-3.708606,7.0,3.5,['International'],12,3,+34-911089446,1,1,1,"{'Monday': '09:00 - 16:00', 'Tuesday': '09:00 - 16:00', 'Wednesday': '09:00 - 16:00', 'Thursday': '09:00 - 16:00', 'Friday': '09:00 - 16:00', 'Saturday': '09:00 - 16:00', 'Sunday': '09:00 - 16:00'}",https://www.happycow.net/reviews/brunchit-malasana-madrid-309892,49.0,7.0,7.0,3,1,0.34176249467622166
171,El Arco Pinoy,"C de las Huertas, 7,Madrid,Spain,28012",40.414109,-3.701068,7.0,4.0,['Asian'],35,2,+34-917568914,1,1,1,"{'Monday': '13:00 - 16:30, 19:00 - 23:30', 'Tuesday': '13:00 - 16:30, 19:00 - 23:30', 'Wednesday': '13:00 - 16:30, 19:00 - 23:30', 'Thursday': '13:00 - 16:30, 19:00 - 23:30', 'Friday': '13:00 - 16:30, 19:00 - 23:30', 'Saturday': '13:00 - 23:30', 'Sunday': '13:00 - 23:30'}",https://www.happycow.net/reviews/el-arco-pinoy-madrid-267668,61.0,7.0,8.71,3,1,0.3371242338388608
172,Falafeleria - La Latina,"Calle de Toledo 28, Centro,Madrid,Spain,28005",40.413757,-3.707578,2.0,5.0,"['Mediterranean', 'Middle Eastern']",8,1,No phone number,1,1,1,"{'Monday': '13:00 - 23:00', 'Tuesday': '13:00 - 23:00', 'Wednesday': '13:00 - 23:00', 'Thursday': '13:00 - 23:00', 'Friday': '13:00 - 23:30', 'Saturday': '13:00 - 23:30', 'Sunday': '13:00 - 23:00'}",https://www.happycow.net/reviews/falafeleria-madrid-410144,71.0,7.0,10.14,3,1,0.20582189878340096
173,Antonia Pizza,"Calle del Dos de Mayo, 10,Madrid,Spain,28004",40.426435,-3.704096,5.0,2.5,"['American', 'Italian', 'Spanish']",6,2,+34-911661315,0,0,1,"{'Monday': '18:00 - 00:00', 'Tuesday': '18:00 - 00:00', 'Wednesday': '18:00 - 00:00', 'Thursday': '18:00 - 00:00', 'Friday': '13:00 - 01:00', 'Saturday': '13:00 - 01:00', 'Sunday': '13:00 - 00:00'}",https://www.happycow.net/reviews/antonia-pizza-madrid-182124,59.0,7.0,8.43,1,1,0.31163750162028037
174,Miss Sushi - Santa Ana,"C del Prado, 2,Madrid,Spain,28012",40.414535,-3.700013,4.0,3.5,"['Japanese', 'Asian', 'Fusion']",6,2,+34-910100811,1,1,1,"{'Monday': '13:00 - 00:00', 'Tuesday': '13:00 - 00:00', 'Wednesday': '13:00 - 00:00', 'Thursday': '13:00 - 00:00', 'Friday': '13:00 - 00:00', 'Saturday': '13:00 - 00:00', 'Sunday': '13:00 - 00:00'}",https://www.happycow.net/reviews/miss-sushi-madrid-368969,77.0,7.0,11.0,3,1,0.24307538470084994
175,Sweet Studio,"Nº16, Calle del Noviciado,Madrid,Spain,28015",40.425714,-3.708864,3.0,3.5,"['Japanese', 'Western', 'European']",2,2,+34-919204967,1,0,0,"{'Monday': '09:00 - 20:00', 'Tuesday': 'Closed', 'Wednesday': '09:00 - 20:00', 'Thursday': '09:00 - 20:00', 'Friday': '09:00 - 20:00', 'Saturday': '09:00 - 20:00', 'Sunday': '09:00 - 20:00'}",https://www.happycow.net/reviews/sweet-studio-madrid-292089,66.0,6.0,9.43,1,1,0.2001996185397108
176,Toma Café 1,"Calle de la Palma, 49,Madrid,Spain,28004",40.426433,-3.705853,5.0,4.0,[],10,0,+34-917049344,1,0,0,"{'Monday': '08:00 - 20:00', 'Tuesday': '08:00 - 20:00', 'Wednesday': '08:00 - 20:00', 'Thursday': '08:00 - 20:00', 'Friday': '08:00 - 20:00', 'Saturday': '09:00 - 20:00', 'Sunday': '09:00 - 20:00'}",https://www.happycow.net/reviews/toma-cafe-1-madrid-233744,82.0,7.0,11.71,1,1,0.2685684128659519
177,GRACIANA Empanadas Argentinas,"9 Calle del Noviciado,Madrid,Spain,28015",40.425673,-3.709069,7.0,4.0,[],10,0,+34-916171272,1,1,1,"{'Monday': '12:00 - 23:00', 'Tuesday': '12:00 - 23:00', 'Wednesday': '12:00 - 23:00', 'Thursday': '12:00 - 23:00', 'Friday': '12:00 - 23:00', 'Saturday': '12:00 - 23:00', 'Sunday': '12:00 - 23:00'}",https://www.happycow.net/reviews/graciana-empanadas-argentinas-madrid-293880,77.0,7.0,11.0,3,1,0.20118511934522157
178,Xiongzai,"Calle San Leonardo, 3,Madrid,Spain,28015",40.424842,-3.71071,18.0,3.5,"['Chinese', 'Asian']",48,1,+34-914669808,0,0,0,"{'Monday': 'Closed', 'Tuesday': '12:30 - 23:30', 'Wednesday': '12:30 - 23:30', 'Thursday': '12:30 - 23:30', 'Friday': '12:30 - 23:30', 'Saturday': '12:30 - 23:30', 'Sunday': '12:30 - 23:00'}",https://www.happycow.net/reviews/xiongzai-madrid-112789,65.5,6.0,9.36,0,0,0.21555765420439607
179,Masamune,"C. de la Palma, 2, Centro,Madrid,Spain,28004",40.426078,-3.701305,2.0,4.5,[],2,0,No phone number,1,0,0,"{'Monday': 'Closed', 'Tuesday': '08:30 - 20:00', 'Wednesday': '08:30 - 20:00', 'Thursday': '08:30 - 20:00', 'Friday': '08:30 - 20:00', 'Saturday': '09:30 - 20:00', 'Sunday': '09:30 - 20:00'}",https://www.happycow.net/reviews/masamune-madrid-397660,67.0,6.0,9.57,1,1,0.5659711497509398
180,Distrito Vegano Invernadero,"Calle Conde De Romanones, 10,Madrid,Spain,28012",40.413113,-3.705046,150.0,4.5,"['International', 'European', 'Spanish']",351,2,+34-912108273,1,1,1,"{'Monday': 'Closed', 'Tuesday': '11:00 - 00:00', 'Wednesday': '11:00 - 00:00', 'Thursday': '11:00 - 00:00', 'Friday': '11:00 - 01:00', 'Saturday': '10:00 - 01:00', 'Sunday': '10:00 - 18:00'}",https://www.happycow.net/reviews/distrito-vegano-invernadero-madrid-284035,76.0,6.0,10.86,3,1,0.3318985982260245
181,Natura,"Calle Jovellanos, 6,Madrid,Spain,28014",40.416957,-3.696825,4.0,4.0,"['Italian', 'Mediterranean']",7,2,+34-919223375,1,1,1,"{'Monday': '13:00 - 17:00, 20:00 - 00:00', 'Tuesday': '13:00 - 17:00, 20:00 - 00:00', 'Wednesday': '13:00 - 17:00, 20:00 - 00:00', 'Thursday': '13:00 - 17:00, 20:00 - 00:00', 'Friday': '13:00 - 17:00, 20:00 - 00:00', 'Saturday': '13:00 - 17:00, 20:00 - 00:00', 'Sunday': '13:00 - 17:00, 20:00 - 00:00'}",https://www.happycow.net/reviews/natura-madrid-284735,56.0,7.0,8.0,3,1,0.1671888598781549
182,Con 2 Fogones,"C. de San Bernardino, 9,Madrid,Spain,28015",40.425233,-3.710675,0.0,0.0,"['International', 'Spanish']",2,2,+34-915596326,1,1,1,"{'Monday': '13:00 - 17:00, 20:00 - 00:00', 'Tuesday': '13:00 - 17:00, 20:00 - 00:00', 'Wednesday': '13:00 - 17:00, 20:00 - 00:00', 'Thursday': '13:00 - 17:00, 20:00 - 00:00', 'Friday': '13:00 - 17:00, 20:00 - 00:00', 'Saturday': '13:00 - 17:00, 20:00 - 01:00', 'Sunday': '13:00 - 17:00'}",https://www.happycow.net/reviews/con-2-fogones-madrid-410568,53.0,7.0,7.57,3,1,0.3151673055200637
183,Smok Mok - Food Stall,"Calle del Dr Cortezo, 10,Madrid,Spain,28012",40.413028,-3.703927,6.0,3.5,['Asian'],13,2,+34-914213575,1,1,1,"{'Monday': '13:00 - 00:00', 'Tuesday': '13:00 - 00:00', 'Wednesday': '13:00 - 00:00', 'Thursday': '13:00 - 00:00', 'Friday': '13:00 - 00:30', 'Saturday': '13:00 - 00:30', 'Sunday': '13:00 - 00:00'}",https://www.happycow.net/reviews/smok-mok-madrid-301792,78.0,7.0,11.14,3,1,0.32513675166194467
184,VegAmazing Doughnuts - Tirso de Molina,"Calle del Conde de Romanones, 14,Madrid,Spain,28012",40.41299,-3.705299,46.0,5.0,[],74,0,+34-655490879,0,1,1,"{'Monday': 'Closed', 'Tuesday': 'Closed', 'Wednesday': '10:00 - 14:00, 16:00 - 20:00', 'Thursday': '10:00 - 14:00, 16:00 - 20:00', 'Friday': '10:00 - 14:00, 16:00 - 20:00', 'Saturday': '10:00 - 20:00', 'Sunday': '10:00 - 20:00'}",https://www.happycow.net/reviews/vegamazing-doughnuts-madrid-324338,44.0,5.0,6.29,2,1,0.26811399366701855
185,Faborit,"2 Calle Princesa,Madrid,Spain,28008",40.424567,-3.71161,8.0,4.0,[],5,0,+34-918626313,1,1,1,"{'Monday': '08:00 - 19:00', 'Tuesday': '08:00 - 19:00', 'Wednesday': '08:00 - 19:00', 'Thursday': '08:00 - 19:00', 'Friday': '08:00 - 20:00', 'Saturday': '09:00 - 20:00', 'Sunday': '09:00 - 20:00'}",https://www.happycow.net/reviews/faborit-madrid-265976,78.0,7.0,11.14,3,1,0.1669277632724108
186,Lalina Bravas y Tapas Chueca,"Calle de Gravina 18,Madrid,Spain,28004",40.422621,-3.696478,0.0,0.0,['Spanish'],1,2,+34-910254247,1,1,1,"{'Monday': '13:00 - 00:00', 'Tuesday': '13:00 - 00:00', 'Wednesday': '13:00 - 00:00', 'Thursday': '13:00 - 01:00', 'Friday': '13:00 - 02:30', 'Saturday': '13:00 - 02:30', 'Sunday': '13:00 - 00:00'}",https://www.happycow.net/reviews/lalina-bravas-y-tapas-chueca-gluten-free-madrid-415121,83.0,7.0,11.86,3,1,0.2921596948317686
187,Lamucca de Prado,"C. del Prado, 16,Madrid,Spain,28014",40.414759,-3.698674,4.0,3.0,"['American', 'International', 'Mediterranean', 'Spanish']",8,2,+34-915210000,1,1,1,"{'Monday': '13:00 - 01:30', 'Tuesday': '13:00 - 01:30', 'Wednesday': '13:00 - 01:30', 'Thursday': '13:00 - 02:00', 'Friday': '13:00 - 02:30', 'Saturday': '13:00 - 02:30', 'Sunday': '13:00 - 01:30'}",https://www.happycow.net/reviews/lamucca-de-prado-madrid-316792,90.0,7.0,12.86,3,1,0.271759346702961
188,Guasa,"Calle de San Lorenzo, 9,Madrid,Spain,28004",40.425278,-3.698956,4.0,4.0,['Spanish'],32,1,+34-910098265,1,0,1,"{'Monday': 'Closed', 'Tuesday': 'Closed', 'Wednesday': '13:00 - 16:00, 19:00 - 21:00', 'Thursday': '13:00 - 16:00, 19:00 - 21:00', 'Friday': '13:00 - 16:00, 19:00 - 21:00', 'Saturday': '13:00 - 21:00', 'Sunday': '13:00 - 21:00'}",https://www.happycow.net/reviews/guasa-madrid-215380,31.0,5.0,4.43,2,1,0.25614762142843917
189,Mamuka ,"Tr.ª del Conde Duque, 5, Local,Madrid,Spain,28015",40.42581,-3.709918,3.0,3.0,"['Caribbean', 'French']",1,1,+34-919121131,1,1,1,"{'Monday': 'Closed', 'Tuesday': 'Closed', 'Wednesday': '10:00 - 16:00', 'Thursday': '10:00 - 16:00, 19:00 - 23:00', 'Friday': '10:00 - 00:00', 'Saturday': '10:00 - 00:00', 'Sunday': '10:00 - 16:00'}",https://www.happycow.net/reviews/mamuka-madrid-376273,50.0,5.0,7.14,3,1,0.32941318074921766
190,Bodegas Rivas,"C. de la Palma, 61, Centro,Madrid,Spain,28015",40.426639,-3.707638,2.0,4.0,"['Western', 'Mexican', 'Spanish']",4,2,+34-914217954,1,1,1,"{'Monday': '10:00 - 00:00', 'Tuesday': '10:00 - 00:00', 'Wednesday': '10:00 - 00:00', 'Thursday': '10:00 - 00:00', 'Friday': '10:00 - 02:00', 'Saturday': '10:00 - 02:00', 'Sunday': '10:00 - 00:00'}",https://www.happycow.net/reviews/bodegas-rivas-madrid-378164,102.0,7.0,14.57,3,1,0.2776464270503491
191,Dellicare Cafe,"Calle Pelayo 45,Madrid,Spain,28004",40.424276,-3.697511,2.0,3.5,['Western'],10,2,+34-910235759,1,0,1,"{'Monday': 'Closed', 'Tuesday': '10:30 - 20:30', 'Wednesday': '10:30 - 20:30', 'Thursday': '10:30 - 20:30', 'Friday': '10:30 - 20:30', 'Saturday': '12:00 - 20:30', 'Sunday': 'Closed'}",https://www.happycow.net/reviews/dellicare-madrid-58696,48.5,5.0,6.93,2,1,0.32751773049645394
192,EL INCA,"C. de Gravina, 23,Madrid,Spain,28004",40.422682,-3.696212,1.0,4.0,['Latin'],0,2,+34-915327745,1,1,1,"{'Monday': '13:00 - 17:00', 'Tuesday': '13:00 - 17:00', 'Wednesday': '13:00 - 17:00', 'Thursday': '13:00 - 17:00, 20:00 - 00:00', 'Friday': '13:00 - 17:00, 20:00 - 00:00', 'Saturday': '13:00 - 17:00, 20:00 - 00:00', 'Sunday': 'Closed'}",https://www.happycow.net/reviews/el-inca-madrid-409690,36.0,6.0,5.14,3,1,0.29634094402162847
193,Ninja Ramen,"Calle de Barcelo, 1,Madrid,Spain,28004",40.426474,-3.700983,2.0,4.0,['Japanese'],5,2,+34-914939993,1,0,1,"{'Monday': '12:30 - 16:30, 19:30 - 00:00', 'Tuesday': '12:30 - 16:30, 19:30 - 00:00', 'Wednesday': '12:30 - 16:30, 19:30 - 00:00', 'Thursday': '12:30 - 16:30, 19:30 - 00:00', 'Friday': '12:30 - 16:30, 19:30 - 00:00', 'Saturday': '12:30 - 16:30, 19:30 - 00:00', 'Sunday': '12:30 - 16:30, 19:30 - 00:00'}",https://www.happycow.net/reviews/ninja-ramen-madrid-257959,59.5,7.0,8.5,2,1,0.30679480769586875
194,Gonder,"Grafal, 8,Madrid,Spain,28005",40.413177,-3.708194,6.0,4.0,"['Middle Eastern', 'African']",32,2,+34-917047250,1,0,1,"{'Monday': 'Closed', 'Tuesday': '12:00 - 00:00', 'Wednesday': '12:00 - 00:00', 'Thursday': '12:00 - 00:00', 'Friday': '12:00 - 00:00', 'Saturday': '12:00 - 00:00', 'Sunday': '12:00 - 00:00'}",https://www.happycow.net/reviews/gonder-madrid-219595,72.0,6.0,10.29,2,1,0.26163435364701965
195,Oakberry,"Calle de Fuencarral, 80,Madrid,Spain,28004",40.426572,-3.701194,1.0,4.0,"['International', 'Brazilian']",3,0,+34-661426222,1,1,1,"{'Monday': '10:00 - 21:30', 'Tuesday': '09:30 - 21:30', 'Wednesday': '09:30 - 21:30', 'Thursday': '09:30 - 21:30', 'Friday': '09:30 - 21:30', 'Saturday': '09:30 - 21:30', 'Sunday': '10:00 - 21:30'}",https://www.happycow.net/reviews/oakberry-madrid-298937,83.0,7.0,11.86,3,1,0.2544454937688647
196,Sra. Smith,"C. del Barquillo, 10,Madrid,Spain,28004",40.420503,-3.69545,1.0,3.0,"['Mediterranean', 'Spanish']",1,2,+34-915240317,1,1,0,"{'Monday': '09:00 - 17:00', 'Tuesday': '09:00 - 17:00', 'Wednesday': '09:00 - 23:30', 'Thursday': '09:00 - 00:00', 'Friday': '09:00 - 00:00', 'Saturday': '12:00 - 00:00', 'Sunday': '12:00 - 23:30'}",https://www.happycow.net/reviews/sra-smith-madrid-401253,84.0,7.0,12.0,2,1,0.3750017591615281
197,Honest Greens - Hortaleza,"Calle de Hortaleza, 100,Madrid,Spain,28004",40.424824,-3.697831,39.0,4.0,"['International', 'European']",58,2,+34-910743585,1,1,1,"{'Monday': '08:30 - 23:00', 'Tuesday': '08:30 - 23:00', 'Wednesday': '08:30 - 23:00', 'Thursday': '08:30 - 23:00', 'Friday': '08:30 - 00:00', 'Saturday': '09:30 - 00:00', 'Sunday': '09:30 - 23:00'}",https://www.happycow.net/reviews/honest-greens-madrid-127458,101.5,7.0,14.5,3,1,0.32751773049645394
198,Las Mañanitas,"Calle de Fuencarral, 82,Madrid,Spain,28004",40.426688,-3.70134,1.0,4.0,['Mexican'],0,3,+34-915224589,1,0,1,"{'Monday': '13:00 - 16:00, 21:00 - 00:00', 'Tuesday': '13:00 - 16:00, 21:00 - 00:00', 'Wednesday': '13:00 - 16:00, 21:00 - 00:00', 'Thursday': '13:00 - 16:00, 21:00 - 00:00', 'Friday': '13:00 - 16:00, 20:00 - 00:00', 'Saturday': '13:00 - 16:00, 20:00 - 00:00', 'Sunday': '13:00 - 16:00'}",https://www.happycow.net/reviews/las-mananitas-madrid-106859,41.0,7.0,5.86,2,1,0.2715697276077255
199,Amazonia Acai - Malasaña,"Calle de Amaniel, 20,Madrid,Spain,28015",40.426416,-3.709263,3.0,5.0,"['Western', 'Brazilian']",9,0,+34-910257194,1,0,1,"{'Monday': '10:00 - 14:00, 17:00 - 21:30', 'Tuesday': 'Closed', 'Wednesday': '10:00 - 14:00, 17:00 - 21:30', 'Thursday': '10:00 - 14:00, 17:00 - 21:30', 'Friday': '10:00 - 14:00, 17:00 - 21:30', 'Saturday': '10:00 - 21:30', 'Sunday': '10:00 - 21:30'}",https://www.happycow.net/reviews/amazonia-acai-madrid-260742,57.0,6.0,8.14,2,1,0.22184026813325186
200,Celicioso Barquillo,"Calle del Barquillo, 19,Madrid,Spain,28004",40.422139,-3.695701,12.0,3.5,[],19,0,+34-915322899,1,0,1,"{'Monday': '09:00 - 22:00', 'Tuesday': '09:00 - 22:00', 'Wednesday': '09:00 - 22:00', 'Thursday': '09:00 - 22:00', 'Friday': '09:00 - 22:00', 'Saturday': '09:00 - 22:00', 'Sunday': '09:00 - 22:00'}",https://www.happycow.net/reviews/celicioso-barquillo-madrid-108302,91.0,7.0,13.0,2,1,0.26444864174212546
201,La Huerta de Almería - Hortaleza,"C/ de Hortaleza, 73,Madrid,Spain,28004",40.425029,-3.69793,4.0,4.0,"['International', 'Mediterranean']",4,2,+34-910255989,1,0,0,"{'Monday': '10:00 - 23:00', 'Tuesday': '10:00 - 23:00', 'Wednesday': '10:00 - 23:00', 'Thursday': '10:00 - 23:00', 'Friday': '10:00 - 23:00', 'Saturday': '10:00 - 23:00', 'Sunday': '09:00 - 23:00'}",https://www.happycow.net/reviews/la-huerta-de-almeria-madrid-341977,92.0,7.0,13.14,1,1,0.2711153084087921
202,Juicy Avenue - Fuencarral,"93 Calle de Fuencarral,Madrid,Spain,28004",40.426896,-3.701734,4.0,2.5,"['International', 'Western']",4,2,+34-910944403,1,1,1,"{'Monday': '07:30 - 23:30', 'Tuesday': '07:30 - 23:30', 'Wednesday': '07:30 - 23:30', 'Thursday': '07:30 - 23:30', 'Friday': '07:30 - 00:00', 'Saturday': '07:30 - 00:00', 'Sunday': '07:30 - 00:00'}",https://www.happycow.net/reviews/juicy-avenue-madrid-286909,113.5,7.0,16.21,3,1,0.24961279928892838
203,Zuppa,"Calle Atocha, 47,Madrid,Spain",40.413298,-3.700621,7.0,3.5,"['Fusion', 'Spanish']",14,2,No phone number,1,0,0,"{'Monday': '12:00 - 23:00', 'Tuesday': '12:00 - 23:00', 'Wednesday': '12:00 - 23:00', 'Thursday': '12:00 - 23:00', 'Friday': '12:00 - 23:00', 'Saturday': '12:00 - 23:00', 'Sunday': 'Closed'}",https://www.happycow.net/reviews/zuppa-madrid-209406,66.0,6.0,9.43,1,1,0.263873858859693
204,Dale Café ,"C. de los Relatores, 22,Madrid,Spain,28012",40.412609,-3.703515,23.0,5.0,"['International', 'Mediterranean', 'European', 'Spanish']",42,0,No phone number,0,1,0,"{'Monday': '09:00 - 20:00', 'Tuesday': '09:00 - 20:00', 'Wednesday': '09:00 - 20:00', 'Thursday': '09:00 - 20:00', 'Friday': '09:00 - 20:00', 'Saturday': '09:00 - 20:00', 'Sunday': 'Closed'}",https://www.happycow.net/reviews/dale-cafe-madrid-354361,66.0,6.0,9.43,1,1,0.1669277632724108
205,Lamucca de Plaza de España  ,"Pl. de España, 11, Moncloa - Aravaca,Madrid,Spain,28008",40.422266,-3.714091,0.0,0.0,"['International', 'Mediterranean', 'European']",1,2,+34-915210000,1,1,1,"{'Monday': '10:00 - 01:30', 'Tuesday': '10:00 - 01:30', 'Wednesday': '10:00 - 01:30', 'Thursday': '10:00 - 01:30', 'Friday': '10:00 - 02:30', 'Saturday': '10:00 - 02:30', 'Sunday': '10:00 - 01:30'}",https://www.happycow.net/reviews/lamucca-de-plaza-de-espana-madrid-396604,110.5,7.0,15.79,3,1,0.13411662315056572
206,Empanadas Las Muns - Tribunal,"88 Calle de Fuencarral,Madrid,Spain,28004",40.426948,-3.701297,0.0,0.0,"['International', 'Spanish']",3,2,+34-663868656,1,1,0,"{'Monday': '08:30 - 22:00', 'Tuesday': '08:30 - 22:00', 'Wednesday': '08:30 - 22:00', 'Thursday': '08:30 - 22:00', 'Friday': '08:30 - 06:00', 'Saturday': '10:30 - 06:00', 'Sunday': '10:30 - 22:00'}",https://www.happycow.net/reviews/empanadas-las-muns-tribunal-madrid-338261,106.5,7.0,15.21,2,1,0.34367794381793604
207,Honest Greens - Fuencarral,"Calle de Fuencarral 95,Madrid,Spain,28004",40.427073,-3.701712,16.0,4.0,"['International', 'European']",13,2,+34-931227664,1,1,1,"{'Monday': '08:30 - 23:00', 'Tuesday': '08:30 - 23:00', 'Wednesday': '08:30 - 23:00', 'Thursday': '08:30 - 23:00', 'Friday': '08:30 - 00:00', 'Saturday': '09:30 - 00:00', 'Sunday': '09:30 - 23:00'}",https://www.happycow.net/reviews/honest-greens-madrid-329495,101.5,7.0,14.5,3,1,0.2567375886524823
208,Lamucca de Fuencarral ,"Calle de Fuencarral, 95,Madrid,Spain,28004",40.427073,-3.701712,4.0,3.0,"['American', 'International', 'European', 'Spanish']",0,2,+34-915210000,1,0,1,"{'Monday': '11:00 - 01:30', 'Tuesday': '11:00 - 01:30', 'Wednesday': '11:00 - 01:30', 'Thursday': '11:00 - 02:00', 'Friday': '11:00 - 02:30', 'Saturday': '10:00 - 02:30', 'Sunday': '10:00 - 01:30'}",https://www.happycow.net/reviews/lamucca-de-fuencarral-madrid-298289,106.0,7.0,15.14,2,1,0.1
209,Mala Mujer,"Calle de la Palma, 72,Madrid,Spain,28015",40.426856,-3.70878,0.0,0.0,[],0,2,+34-639132498,0,0,1,"{'Monday': '13:00 - 17:00, 19:00 - 00:00', 'Tuesday': '13:00 - 17:00, 19:00 - 00:00', 'Wednesday': '13:00 - 17:00, 19:00 - 00:00', 'Thursday': '13:00 - 17:00, 19:00 - 00:00', 'Friday': '13:00 - 17:00, 19:00 - 00:00', 'Saturday': '12:00 - 17:00, 19:00 - 00:00', 'Sunday': '12:00 - 14:30'}",https://www.happycow.net/reviews/mala-mujer-madrid-386768,57.5,7.0,8.21,1,1,0.2850349054682147
210,Ay! Rosa,"Calle de León, 16,Madrid,Spain,28014",40.413832,-3.698997,7.0,3.5,['Mexican'],22,2,+34-914203068,1,0,1,"{'Monday': '19:00 - 00:00', 'Tuesday': '19:00 - 00:00', 'Wednesday': '19:00 - 00:00', 'Thursday': '19:00 - 00:00', 'Friday': '13:00 - 00:00', 'Saturday': '13:00 - 00:00', 'Sunday': '13:00 - 00:00'}",https://www.happycow.net/reviews/ay-rosa-madrid-236098,53.0,7.0,7.57,2,1,0.22700183323148715
211,Colorado Cantina Express,"Martín de los heros. 4,Madrid,Spain,28008",40.42411,-3.713109,7.0,3.0,['Mexican'],4,2,+34-625536840,0,0,1,"{'Monday': '18:00 - 01:30', 'Tuesday': '18:00 - 01:30', 'Wednesday': '18:00 - 01:30', 'Thursday': '18:00 - 01:30', 'Friday': '18:00 - 01:30', 'Saturday': '18:00 - 01:30', 'Sunday': '18:00 - 01:30'}",https://www.happycow.net/reviews/colorado-cantina-express-madrid-128575,52.5,7.0,7.5,1,1,0.2796774253282225
212,"Good Shit, Vegan Kebabs","Calle de San Bernardino 20, Centro,Madrid,Spain,28015",40.4257,-3.711392,5.0,3.5,"['Mediterranean', 'Middle Eastern']",8,2,+34-623105076,1,1,0,"{'Monday': 'Closed', 'Tuesday': 'Closed', 'Wednesday': '19:00 - 23:00', 'Thursday': '19:00 - 23:00', 'Friday': '12:30 - 16:00, 19:00 - 23:00', 'Saturday': '12:30 - 16:00, 19:00 - 23:00', 'Sunday': '12:30 - 16:00, 19:00 - 23:00'}",https://www.happycow.net/reviews/good-shit-vegan-kebabs-madrid-426906,30.5,5.0,4.36,2,1,0.1671888598781549
213,Brunchit - Las Letras,"Pl. de Matute, 5, Centro,Madrid,Spain,28012",40.413326,-3.699749,0.0,0.0,"['Western', 'European', 'Fusion']",2,2,+34-911089446,1,1,1,"{'Monday': '09:00 - 16:00', 'Tuesday': '09:00 - 16:00', 'Wednesday': '09:00 - 16:00', 'Thursday': '09:00 - 16:00', 'Friday': '09:00 - 16:00', 'Saturday': '09:00 - 16:00', 'Sunday': '09:00 - 16:00'}",https://www.happycow.net/reviews/brunchit-madrid-398183,49.0,7.0,7.0,3,1,0.26307538470084996
214,Mune,"Calle Pelayo, 57,Madrid,Spain",40.424798,-3.697005,3.0,4.0,['Middle Eastern'],2,2,+34-913952056,1,0,0,"{'Monday': '13:30 - 17:00, 20:00 - 01:00', 'Tuesday': '13:30 - 17:00, 20:00 - 01:00', 'Wednesday': '13:30 - 17:00, 20:00 - 01:00', 'Thursday': '13:30 - 17:00, 20:00 - 01:00', 'Friday': '13:30 - 17:00, 20:00 - 01:00', 'Saturday': '13:30 - 17:00, 20:00 - 01:00', 'Sunday': '13:30 - 17:00, 20:00 - 01:00'}",https://www.happycow.net/reviews/mune-madrid-296227,59.5,7.0,8.5,1,1,0.23634094402162845
215,Kirei Las Cortes,"Calle San Agustín, 3, Las Letras (at Doubletree by Hilton),Madrid,Spain,28014",40.41517,-3.696795,2.0,2.5,"['Japanese', 'Fusion']",5,3,+34-917371922,1,0,0,"{'Monday': '13:00 - 16:00, 20:00 - 00:00', 'Tuesday': '13:00 - 16:00, 20:00 - 00:00', 'Wednesday': '13:00 - 16:00, 20:00 - 00:00', 'Thursday': '13:00 - 16:00, 20:00 - 00:00', 'Friday': '13:00 - 16:00, 20:00 - 00:00', 'Saturday': '13:00 - 16:00, 20:00 - 00:00', 'Sunday': '13:00 - 16:00, 20:00 - 00:00'}",https://www.happycow.net/reviews/kirei-las-cortes-madrid-110084,49.0,7.0,7.0,1,1,0.13000314797326074
216,Il Limoncello,"Plaza de Tirso de Molina,Madrid,Spain,28012",40.412124,-3.704281,3.0,1.5,['Italian'],3,2,+34-911276109,0,0,0,"{'Monday': '13:00 - 00:00', 'Tuesday': '13:00 - 00:00', 'Wednesday': '13:00 - 00:00', 'Thursday': '13:00 - 00:00', 'Friday': '13:00 - 00:00', 'Saturday': '13:00 - 00:00', 'Sunday': '13:00 - 00:00'}",https://www.happycow.net/reviews/il-limoncello-madrid-280069,77.0,7.0,11.0,0,0,0.24477751236042444
217,MadRolls - Cinnamon Rolls,"Bernardo Lopez Garcia Street 10,Madrid,Spain,28024",40.426884,-3.709595,5.0,3.5,[],2,0,+34-910060437,1,1,1,"{'Monday': '11:00 - 13:00, 15:00 - 21:00', 'Tuesday': '11:00 - 13:00, 15:00 - 21:00', 'Wednesday': '11:00 - 13:00, 15:00 - 21:00', 'Thursday': '11:00 - 13:00, 15:00 - 21:00', 'Friday': '09:00 - 22:00', 'Saturday': '09:00 - 22:00', 'Sunday': '09:00 - 22:00'}",https://www.happycow.net/reviews/madrolls-cinnamon-rolls-madrid-384660,71.0,7.0,10.14,3,1,0.22777882710219804
218,Ambu Bakery,"5 Calle de Ruiz,Madrid,Spain,28004",40.427745,-3.704005,1.0,4.0,[],1,0,No phone number,1,1,0,"{'Monday': '09:00 - 17:00', 'Tuesday': '09:00 - 17:00', 'Wednesday': '09:00 - 17:00', 'Thursday': '09:00 - 17:00', 'Friday': '09:00 - 17:00', 'Saturday': '09:00 - 17:00', 'Sunday': '09:00 - 17:00'}",https://www.happycow.net/reviews/ambu-bakery-madrid-380699,56.0,7.0,8.0,2,1,0.06692776327241079
219,Trendy & Green,"Apodaca 8,Madrid,Spain",40.427225,-3.701009,0.0,0.0,[],1,0,No phone number,1,0,1,Closed,https://www.happycow.net/reviews/trendy-and-green-madrid-233728,0.0,0.0,0.0,2,1,0.25138270096105775
